,City,Cloudiness,Country,Date,Humidity,Lat,Lng,Max Temperature,Wind Speed
0,upernavik,7,GL,1570595051,53,72.79,-56.15,25.84,6.91
1,chuy,0,UY,1570595051,73,-33.69,-53.46,54.91,3.66
2,arraial do cabo,100,BR,1570595051,98,-22.97,-42.02,70.91,5.68
3,fort nelson,20,CA,1570595051,58,58.81,-122.69,30.2,5.82
4,kavaratti,40,IN,1570595052,79,10.57,72.64,86.0,4.7
5,pevek,100,RU,1570595052,83,69.7,170.27,30.81,17.67
6,yar-sale,100,RU,1570595052,83,66.83,70.83,34.93,12.97
7,puerto ayacucho,100,CO,1570595053,82,5.66,-67.63,79.25,3.74
8,busselton,100,AU,1570595053,32,-33.64,115.35,79.0,9.22
9,qaanaaq,85,GL,1570595053,65,77.48,-69.36,19.29,10.74
10,caravelas,0,BR,1570595053,84,-17.73,-39.27,74.19,8.81
11,hermanus,100,ZA,1570595054,87,-34.42,19.24,55.99,3.0
12,muros,20,ES,1570595054,100,42.77,-9.06,59.0,16.08
13,mataura,100,NZ,1570595054,98,-46.19,168.86,51.01,3.0
14,ushuaia,40,AR,1570595055,92,-54.81,-68.31,35.6,27.51
15,bredasdorp,97,ZA,1570595055,76,-34.53,20.04,55.99,9.17
16,lagoa,0,PT,1570595055,77,37.14,-8.45,68.0,6.93
17,ilulissat,19,GL,1570595055,53,69.22,-51.1,26.6,1.12
18,sao sebastiao,100,BR,1570595056,86,-3.15,-58.36,75.69,1.71
19,mimongo,61,GA,1570595056,99,-1.62,11.6,67.6,2.93
20,cabo san lucas,5,MX,1570595056,65,22.89,-109.91,84.99,6.22
21,jamestown,71,AU,1570595057,25,-33.21,138.6,68.9,2.21
22,zelenogorskiy,6,RU,1570595057,52,55.03,87.0,46.4,8.95
23,albany,40,US,1570594860,87,42.65,-73.75,48.99,5.26
24,east london,75,ZA,1570595057,93,-33.02,27.91,62.6,12.75
25,saskylakh,89,RU,1570595058,95,71.97,114.09,17.64,5.42
26,chokurdakh,0,RU,1570595058,89,70.62,147.9,9.23,1.42
27,kushima,20,JP,1570595058,50,31.5,131.29,75.2,11.41
28,hobart,75,AU,1570594807,50,-42.88,147.33,57.2,12.75
29,butaritari,56,KI,1570595059,67,3.07,172.79,85.26,11.54
30,leh,5,IN,1570595059,45,34.16,77.58,32.07,5.09
31,rikitea,100,PF,1570594842,82,-23.12,-134.97,67.35,12.88
32,mackay,90,CA,1570595060,68,53.65,-115.58,24.8,9.17
33,aksu,0,KZ,1570595060,50,52.04,76.93,57.2,2.24
34,port elizabeth,90,US,1570595060,59,39.31,-74.98,63.0,11.41
35,vaini,84,IN,1570595061,74,15.34,74.49,78.8,2.17
36,ludgerovice,40,CZ,1570595061,87,49.89,18.24,51.01,9.17
37,ponta do sol,100,BR,1570595061,95,-20.63,-46.0,64.9,0.54
38,maniitsoq,94,GL,1570595062,43,65.42,-52.9,36.35,8.48
39,severo-kurilsk,100,RU,1570595062,97,50.68,156.12,42.93,32.24
40,arona,90,IT,1570595062,93,45.76,8.56,57.99,1.12
41,sumbe,100,AO,1570595062,89,-11.2,13.84,72.16,4.3
42,port alfred,15,ZA,1570595063,89,-33.59,26.89,61.0,3.0
43,fairbanks,90,US,1570595063,93,64.84,-147.72,35.6,3.36
44,lompoc,90,US,1570595064,93,34.64,-120.46,59.0,3.36
45,pangai,20,TO,1570595064,69,-19.8,-174.35,80.6,11.41
46,sitka,82,US,1570595064,64,37.17,-99.65,61.0,21.99
47,fortuna,1,US,1570595065,87,40.6,-124.16,55.0,10.29
48,punta arenas,90,CL,1570595065,80,-53.16,-70.91,41.0,29.97
49,dukat,0,AL,1570595065,83,40.25,19.57,64.0,5.14
50,drovyanaya,40,RU,1570595066,28,51.58,113.05,42.8,17.9
51,khatanga,71,RU,1570595066,89,71.98,102.47,18.43,3.44
52,bluff,0,AU,1570595067,18,-23.58,149.07,88.86,10.05
53,altamira,71,BR,1570595067,93,-3.2,-52.21,74.07,2.64
54,flin flon,100,CA,1570595067,57,54.77,-101.88,33.66,9.83
55,gamba,58,CN,1570595067,61,28.28,88.52,33.53,4.88
56,nanortalik,100,GL,1570594930,86,60.14,-45.24,40.13,7.11
57,humaita,0,AR,1570595068,48,-24.93,-65.37,64.4,4.7
58,bonavista,41,CA,1570595068,86,48.65,-53.11,50.0,15.01
59,auki,100,NG,1570595068,90,12.18,6.51,72.46,6.78
60,tuktoyaktuk,40,CA,1570595069,86,69.44,-133.03,28.4,8.05
61,may pen,20,JM,1570595069,74,17.97,-77.26,82.4,9.17
62,barrow,27,AR,1570595070,56,-38.31,-60.23,45.93,6.55
63,taltal,36,CL,1570595070,79,-25.41,-70.49,53.31,1.86
64,kapaa,75,US,1570595070,94,22.08,-159.32,80.6,8.05
65,faanui,97,PF,1570595071,85,-16.48,-151.75,76.03,25.25
66,norman wells,75,CA,1570595071,63,65.28,-126.83,30.2,5.82
67,aklavik,75,CA,1570595071,69,68.22,-135.01,33.8,3.36
68,mayo,90,CA,1570595071,73,63.59,-135.9,26.6,3.91
69,kidal,0,ML,1570595072,38,18.44,1.41,84.25,8.21
70,yelizavetinskoye,100,RU,1570595072,88,45.01,43.35,51.24,8.31
71,babati,100,TZ,1570595072,79,-4.21,35.75,68.41,5.12
72,port hardy,5,CA,1570595073,75,50.7,-127.42,41.0,8.05
73,ogaminana,100,NG,1570595073,98,7.6,6.2,70.16,1.86
74,kavieng,4,PG,1570595073,71,-2.57,150.8,85.23,10.46
75,cherskiy,99,RU,1570595074,94,68.75,161.3,21.49,6.08
76,ancud,90,CL,1570594925,93,-41.87,-73.83,46.4,4.7
77,hilo,1,US,1570594590,61,19.71,-155.08,80.6,3.36
78,bafoulabe,100,ML,1570595074,80,13.81,-10.83,77.68,5.97
79,avarua,100,CK,1570595075,60,-21.21,-159.78,71.6,10.29
80,cidreira,0,BR,1570595075,87,-30.17,-50.22,65.46,7.55
81,kaitangata,100,NZ,1570595075,91,-46.28,169.85,50.0,10.0
82,behshahr,0,IR,1570595076,82,36.69,53.54,64.4,2.24
83,puerto ayora,9,EC,1570595076,95,-0.74,-90.35,64.99,1.01
84,terbuny,73,RU,1570595077,76,52.15,38.28,35.11,9.91
85,sosnovo,100,RU,1570595077,99,60.56,30.25,41.0,1.14
86,dikson,94,RU,1570594843,86,73.51,80.55,21.72,13.62
87,mitu,37,IR,1570595077,65,36.2,46.09,43.52,2.57
88,airai,0,TL,1570595078,46,-8.93,125.41,86.92,4.76
89,meulaboh,83,ID,1570595078,79,4.14,96.13,79.28,3.78
90,bayan,100,CN,1570595078,92,36.1,102.26,40.06,4.2
91,yelabuga,90,RU,1570595079,96,55.76,52.06,32.0,11.18
92,leningradskiy,100,RU,1570595079,81,69.38,178.42,32.65,21.56
93,bontang,89,ID,1570595079,80,0.12,117.47,83.6,3.47
94,port keats,20,AU,1570595079,51,-14.25,129.55,89.0,11.03
95,bathsheba,20,BB,1570595080,69,13.22,-59.52,82.4,16.11
96,souillac,75,FR,1570595080,93,45.6,-0.6,60.01,6.93
97,broken hill,0,AU,1570595081,27,-31.97,141.45,62.6,11.41
98,atuona,11,PF,1570595081,70,-9.8,-139.03,79.48,9.61
99,tumut,0,AU,1570595081,44,-35.3,148.22,57.22,5.84
100,fillmore,1,US,1570595081,77,34.4,-118.91,69.01,4.7
101,sangmelima,95,CM,1570595082,99,2.93,11.98,66.67,3.96
102,necochea,73,AR,1570595082,92,-38.55,-58.74,43.0,1.99
103,talnakh,0,RU,1570595082,79,69.49,88.39,24.8,2.24
104,cape town,40,ZA,1570594870,76,-33.93,18.42,57.99,16.11
105,kodiak,1,US,1570594838,76,39.95,-94.76,57.0,6.93
106,oistins,20,BB,1570595083,69,13.07,-59.53,82.4,16.11
107,georgetown,20,GY,1570595083,94,6.8,-58.16,77.0,2.24
108,kirakira,100,SB,1570595084,77,-10.46,161.92,82.07,5.21
109,shyroke,95,UA,1570595084,49,47.96,38.23,41.38,1.07
110,lebu,96,ET,1570595084,95,8.96,38.73,50.18,1.58
111,radovitskiy,94,RU,1570595084,94,55.13,39.8,32.21,8.5
112,atar,100,MR,1570595085,11,20.52,-13.05,82.22,1.65
113,thinadhoo,62,MV,1570595075,68,0.53,72.93,81.8,6.17
114,guerrero negro,54,MX,1570595085,70,27.97,-114.04,69.96,14.4
115,bud,40,NO,1570595085,93,62.91,6.91,48.2,9.17
116,west bay,40,CA,1570595086,75,49.34,-123.21,48.2,7.18
117,pangnirtung,100,CA,1570595086,90,66.15,-65.72,33.22,2.0
118,constitucion,5,MX,1570595086,45,23.99,-104.67,62.6,5.82
119,tadine,0,NC,1570595086,66,-21.55,167.88,75.92,12.55
120,yulara,0,AU,1570595087,12,-25.24,130.99,86.0,9.17
121,poum,0,MK,1570595087,90,41.28,20.71,44.49,1.87
122,santiago de chuco,100,PE,1570595087,83,-8.15,-78.17,47.75,8.39
123,tagusao,42,PH,1570595088,73,9.19,117.81,83.37,7.0
124,grand gaube,75,MU,1570594958,73,-20.01,57.66,73.99,13.87
125,yellowknife,90,CA,1570595088,86,62.45,-114.38,30.2,11.41
126,riohacha,100,CO,1570595088,78,11.54,-72.91,80.24,5.57
127,san quintin,0,PH,1570595089,60,17.54,120.52,87.64,3.44
128,la palma,100,CO,1570595089,97,5.36,-74.39,68.31,2.89
129,batagay-alyta,51,RU,1570595090,71,67.8,130.41,14.65,6.25
130,castro,90,CL,1570595090,93,-42.48,-73.76,46.4,4.7
131,portland,1,US,1570595066,81,43.66,-70.25,52.0,5.82
132,shetpe,95,KZ,1570595090,47,44.14,52.16,59.54,4.5
133,zhangjiakou,100,CN,1570595091,29,40.77,114.88,54.99,5.86
134,qandala,0,SO,1570595091,66,11.47,49.87,80.1,11.72
135,dunedin,100,NZ,1570594991,78,-45.87,170.5,54.0,5.01
136,coquimbo,90,CL,1570595091,100,-29.95,-71.34,63.0,2.24
137,pervomayskoye,40,RU,1570595092,72,57.07,86.23,36.66,5.82
138,alta floresta,100,BR,1570595092,96,-9.87,-56.08,68.54,4.11
139,kavadarci,0,MK,1570595092,93,41.43,22.01,54.0,0.96
140,hithadhoo,89,MV,1570595092,71,-0.6,73.08,82.15,4.65
141,te anau,100,NZ,1570595093,97,-45.41,167.72,47.12,2.2
142,narsaq,75,GL,1570595093,86,60.91,-46.05,37.4,2.24
143,morogoro,75,TZ,1570595093,100,-6.82,37.67,68.0,1.41
144,la asuncion,0,AR,1570595093,50,-26.05,-65.39,57.2,4.65
145,ayagoz,16,KZ,1570595094,48,47.96,80.43,55.45,11.72
146,kautokeino,99,NO,1570595094,90,69.01,23.04,28.2,11.14
147,liuli,3,TZ,1570595094,69,-11.1,34.65,77.57,13.65
148,klaksvik,67,FO,1570595094,93,62.23,-6.59,50.0,12.75
149,nueva loja,86,EC,1570595095,99,0.08,-76.88,69.48,1.91
150,pisco,90,PE,1570595095,87,-13.71,-76.2,60.8,2.24
151,jingdezhen,0,CN,1570595095,45,29.29,117.2,82.6,2.04
152,benxi,63,CN,1570595096,35,41.29,123.76,69.8,22.37
153,kruisfontein,89,ZA,1570594954,83,-34.0,24.73,58.13,18.61
154,aykhal,90,RU,1570595096,92,65.95,111.51,17.6,6.71
155,port macquarie,75,AU,1570595096,52,-31.43,152.91,71.01,19.46
156,mawlaik,0,MM,1570595096,68,23.63,94.42,79.07,2.98
157,laranjeiras do sul,100,BR,1570595097,90,-25.41,-52.42,61.14,4.25
158,provideniya,90,RU,1570594867,80,64.42,-173.23,41.0,8.95
159,dhidhdhoo,100,MV,1570595097,72,6.88,73.1,82.72,6.2
160,ambilobe,3,MG,1570595098,68,-13.19,49.05,75.47,15.11
161,bilibino,76,RU,1570595098,96,68.06,166.44,9.41,2.68
162,saint-philippe,1,CA,1570595098,93,45.36,-73.48,46.0,2.24
163,mar del plata,10,AR,1570595099,47,-46.43,-67.52,48.61,23.4
164,mana,92,NG,1570595099,82,13.03,5.27,75.27,5.63
165,marsh harbour,100,BS,1570595099,80,26.54,-77.06,80.24,9.02
166,hoquiam,1,US,1570595099,81,46.98,-123.89,48.99,6.93
167,bayburt,81,TR,1570595100,97,40.26,40.22,42.08,5.88
168,saint anthony,1,US,1570595100,40,43.97,-111.68,53.6,5.82
169,dmitriyevka,100,GE,1570595100,94,43.08,41.0,61.45,2.45
170,beira,40,ES,1570595101,100,43.2,-8.36,52.0,4.7
171,carnarvon,0,ZA,1570595101,42,-30.97,22.13,52.07,8.32
172,kjollefjord,75,NO,1570595102,86,70.95,27.35,41.0,16.11
173,hervey bay,75,AU,1570595102,54,-25.3,152.85,81.0,24.16
174,yulin,68,CN,1570595102,59,38.3,109.75,54.19,12.78
175,biltine,95,TD,1570595103,49,14.53,20.93,80.09,4.27
176,sao joao da barra,99,BR,1570595103,86,-21.64,-41.05,73.94,5.53
177,lavrentiya,88,RU,1570595103,93,65.58,-170.99,37.36,0.65
178,sao filipe,2,CV,1570595104,83,14.9,-24.5,75.33,12.29
179,acajutla,100,SV,1570595104,76,13.59,-89.83,83.32,7.81
180,itarema,15,BR,1570595104,79,-2.92,-39.92,76.06,11.48
181,camacha,40,PT,1570595105,88,33.08,-16.33,73.4,10.29
182,clyde river,1,CA,1570595105,92,70.47,-68.59,21.2,5.82
183,san cristobal,95,HN,1570595106,90,14.68,-86.92,68.05,4.23
184,port hedland,0,AU,1570595106,12,-20.31,118.58,104.0,11.41
185,guilin,34,CN,1570594926,54,25.28,110.29,84.2,2.24
186,hoa binh,75,VN,1570595107,78,20.81,105.34,80.6,5.82
187,nola,100,CF,1570595107,99,3.52,16.05,67.85,2.1
188,viedma,100,AR,1570595108,46,-40.81,-62.99,51.31,10.2
189,tambo,2,PE,1570595108,80,-12.95,-74.02,46.43,4.07
190,stony plain,90,CA,1570595108,54,53.53,-114.0,28.99,10.29
191,salalah,20,OM,1570595108,78,17.01,54.1,80.6,1.12
192,codrington,90,AU,1570595109,42,-28.95,153.24,71.6,18.34
193,yumen,100,CN,1570595109,23,40.29,97.04,60.44,13.51
194,stillwater,1,US,1570594876,62,36.12,-97.06,64.0,5.82
195,watsa,88,CD,1570595109,99,3.04,29.53,63.91,0.49
196,morehead,90,US,1570595110,87,38.18,-83.43,60.01,5.82
197,krasnoarmeyskoye,68,RU,1570595110,78,51.2,45.92,36.0,5.99
198,buraydah,0,SA,1570595110,50,26.33,43.97,78.8,4.7
199,zhangye,100,CN,1570595111,40,38.94,100.46,53.13,12.57
200,pochutla,75,MX,1570595111,88,15.74,-96.47,77.0,4.47
201,muzhi,100,RU,1570594845,97,65.4,64.7,34.66,2.84
202,ostrovnoy,64,RU,1570595111,99,68.05,39.51,33.35,8.25
203,anloga,20,GH,1570595112,88,5.79,0.9,78.8,12.75
204,oxapampa,95,PE,1570595112,96,-10.58,-75.4,50.93,3.76
205,thompson,75,CA,1570595112,64,55.74,-97.86,37.4,6.93
206,ahipara,75,NZ,1570595112,85,-35.17,173.16,69.01,14.34
207,longyearbyen,75,NO,1570595113,86,78.22,15.63,33.8,8.05
208,ca mau,60,VN,1570595113,79,9.18,105.15,84.27,7.33
209,taraz,0,KZ,1570595113,42,42.89,71.39,64.4,2.24
210,charters towers,0,AU,1570595114,12,-20.07,146.27,98.92,2.54
211,vilhena,100,BR,1570595114,95,-12.74,-60.15,69.93,3.67
212,ayan,91,IR,1570595115,45,38.23,44.7,48.15,8.66
213,kamaishi,75,JP,1570595115,55,39.28,141.86,66.2,6.93
214,karratha,4,AU,1570595115,8,-20.74,116.85,104.03,3.24
215,junin,0,PE,1570595115,19,-16.45,-71.58,50.0,3.36
216,torbay,90,CA,1570595116,93,47.66,-52.73,52.0,19.46
217,tuatapere,100,NZ,1570595116,98,-46.13,167.69,51.01,3.0
218,kalabo,69,ZM,1570595117,70,-15.0,22.67,66.38,3.91
219,pimentel,1,BR,1570595117,87,-3.7,-45.5,74.08,5.36
220,gat,20,SN,1570595117,83,14.69,-16.54,80.6,4.7
221,saldanha,1,PT,1570595118,87,41.42,-6.55,53.99,6.6
222,salaya,0,IN,1570595118,65,22.31,69.6,84.43,9.3
223,mount vernon,90,US,1570595119,45,38.73,-77.1,64.4,5.65
224,strezhevoy,0,RU,1570595119,78,60.73,77.6,39.2,11.18
225,terrace,5,CA,1570595119,80,54.52,-128.61,33.8,5.82
226,praia da vitoria,40,PT,1570595120,68,38.73,-27.07,64.4,10.95
227,san patricio,0,PY,1570595120,78,-26.98,-56.83,63.25,5.12
228,bukama,93,CD,1570595120,91,-9.2,25.85,65.46,2.17
229,palmer,0,AU,1570595068,48,-34.85,139.16,64.0,16.11
230,behat,40,IN,1570595121,73,30.17,77.62,75.2,1.54
231,hounde,60,BF,1570595121,90,11.5,-3.52,73.33,6.33
232,tucumcari,1,US,1570595122,63,35.17,-103.73,66.2,16.11
233,college,90,US,1570595118,93,64.86,-147.8,37.4,3.36
234,juye,100,CN,1570595122,70,35.39,116.09,62.89,4.07
235,hay river,75,CA,1570595122,69,60.82,-115.79,33.8,20.8
236,tilichiki,5,RU,1570595123,63,60.47,166.1,35.78,2.64
237,nikolskoye,90,RU,1570595123,93,59.7,30.79,41.0,6.71
238,jinchang,100,CN,1570595123,78,38.52,102.19,44.83,15.75
239,geraldton,40,CA,1570594895,71,49.72,-86.95,53.6,9.17
240,poyarkovo,94,RU,1570595124,60,49.62,128.65,49.75,11.7
241,victoria,75,BN,1570595044,74,5.28,115.24,87.8,4.7
242,mahebourg,75,MU,1570595125,73,-20.41,57.7,75.0,13.87
243,yaan,100,NG,1570595125,93,7.38,8.57,71.53,2.51
244,berekum,100,GH,1570595125,98,7.45,-2.58,70.27,1.7
245,tezu,96,IN,1570595126,97,27.93,96.16,71.24,1.92
246,prijedor,0,BA,1570595126,100,44.98,16.71,39.2,6.93
247,lata,10,IN,1570595126,73,30.78,78.62,36.16,4.52
248,komsomolskiy,100,RU,1570595127,91,67.55,63.78,33.28,4.05
249,berlevag,75,NO,1570595127,86,70.86,29.09,39.2,16.11
250,allapalli,70,IN,1570595127,88,19.43,80.06,77.83,2.42
251,catumbela,97,AO,1570595128,90,-12.43,13.55,70.91,4.0
252,mount gambier,90,AU,1570595128,76,-37.83,140.78,55.4,9.17
253,ballina,40,IE,1570595128,93,54.11,-9.15,53.01,10.29
254,syasstroy,100,RU,1570595128,91,60.14,32.56,37.0,9.39
255,camacari,20,BR,1570595129,83,-12.7,-38.32,77.0,8.05
256,lucea,64,JM,1570595129,81,18.44,-78.17,81.0,9.59
257,dogondoutchi,71,NE,1570595129,69,13.64,4.03,79.45,8.81
258,agadez,1,NE,1570595130,61,16.97,7.99,78.8,11.22
259,moose factory,1,CA,1570595130,62,51.26,-80.61,53.6,12.75
260,stavrovo,73,RU,1570595130,94,56.13,40.01,30.52,10.98
261,saint-ambroise,5,CA,1570595131,86,48.56,-71.32,41.0,4.7
262,baghdad,10,IQ,1570595131,47,33.3,44.38,77.0,1.12
263,inuvik,75,CA,1570595131,69,68.36,-133.71,33.8,3.36
264,itoman,75,JP,1570595132,57,26.12,127.67,82.4,18.34
265,noshiro,75,JP,1570595132,72,40.21,140.05,64.4,14.99
266,zhezkazgan,0,KZ,1570595132,30,47.8,67.71,59.0,4.47
267,rorvik,42,NO,1570595132,67,64.86,11.24,43.0,8.99
268,ribeira grande,0,PT,1570595133,65,38.52,-28.7,65.89,14.23
269,olginskaya,100,RU,1570595133,71,45.94,38.55,45.34,6.46
270,haines junction,99,CA,1570594928,64,60.75,-137.51,19.22,3.47
271,prokopyevsk,0,RU,1570595134,83,53.89,86.74,44.53,8.45
272,dongsheng,71,CN,1570595134,62,29.72,112.52,70.68,5.64
273,zeya,100,RU,1570595134,71,53.74,127.27,35.27,4.05
274,svetlogorsk,20,RU,1570595135,87,53.14,59.15,42.8,2.24
275,los llanos de aridane,90,ES,1570595135,64,28.66,-17.92,71.6,11.41
276,bambous virieux,75,MU,1570595135,73,-20.34,57.76,75.0,13.87
277,deputatskiy,100,RU,1570595136,92,69.3,139.9,9.05,2.89
278,vardo,75,US,1570595136,62,39.62,-77.74,59.0,5.82
279,laguna,75,BZ,1570594591,93,16.17,-88.94,78.8,1.31
280,novoseleznevo,100,RU,1570595137,86,55.68,69.21,50.34,6.69
281,coromandel,78,BR,1570595137,89,-18.47,-47.2,67.51,6.73
282,zambezi,100,ZM,1570595137,71,-13.55,23.12,68.32,4.05
283,alofi,71,NU,1570594899,65,-19.06,-169.92,78.8,11.41
284,marystown,100,CA,1570595138,91,47.17,-55.16,48.05,10.8
285,arlit,24,NE,1570595138,42,18.74,7.39,86.0,13.69
286,tallahassee,20,US,1570595006,88,30.44,-84.28,73.4,4.21
287,luderitz,0,NA,1570595138,62,-26.65,15.16,59.0,13.87
288,dzaoudzi,20,YT,1570595138,83,-12.79,45.27,78.8,5.82
289,lang son,45,VN,1570595139,69,21.83,106.73,80.49,3.05
290,abu samrah,100,SY,1570595139,60,35.3,37.18,65.62,7.0
291,port-gentil,57,GA,1570595139,86,-0.72,8.78,78.06,10.1
292,bethel,40,US,1570594883,87,60.79,-161.76,44.6,10.29
293,hasaki,20,JP,1570594844,46,35.73,140.83,77.0,2.24
294,huilong,100,CN,1570595140,86,31.15,106.5,62.76,2.66
295,tiznit,0,MA,1570595140,94,29.7,-9.73,65.89,6.67
296,tual,88,ID,1570595140,79,-5.67,132.75,79.83,3.47
297,sampit,1,ID,1570595141,43,-2.54,112.95,91.63,4.89
298,boyabat,90,TR,1570595141,76,41.47,34.77,57.2,6.93
299,lakatoro,67,VU,1570595141,79,-16.11,167.42,84.2,13.87
300,phan thiet,54,VN,1570595142,61,10.93,108.1,86.29,3.64
301,ikwiriri,100,TZ,1570595142,90,-7.96,38.99,74.05,2.68
302,nema,100,RU,1570595143,97,57.51,50.5,36.3,5.01
303,havoysund,75,NO,1570595143,86,71.0,24.66,41.0,13.87
304,algeciras,0,ES,1570595092,88,36.13,-5.45,71.01,3.36
305,ewa beach,75,US,1570595143,65,21.32,-158.01,82.4,4.7
306,cap malheureux,75,MU,1570595144,73,-19.98,57.61,75.0,13.87
307,poso,0,ID,1570595144,46,-1.4,120.75,79.54,5.84
308,segou,90,SN,1570595144,94,12.41,-12.29,75.2,7.89
309,cocobeach,75,GA,1570595144,94,1.01,9.58,77.0,10.29
310,sarasota,1,US,1570594952,94,27.34,-82.53,78.01,0.4
311,kamenka,7,MD,1570595145,82,48.03,28.7,39.99,8.76
312,evensk,100,RU,1570594868,33,61.92,159.24,28.38,2.93
313,diego de almagro,2,CL,1570595145,48,-26.39,-70.05,55.47,1.1
314,mizan teferi,0,ET,1570595146,78,6.99,35.58,61.32,3.76
315,sri aman,75,MY,1570595146,74,1.24,111.46,84.2,2.24
316,razumnoye,0,RU,1570595146,69,50.53,36.69,35.6,6.71
317,nishihara,75,JP,1570595146,33,35.74,139.53,80.01,11.41
318,vila franca do campo,20,PT,1570594911,55,37.72,-25.43,71.01,6.93
319,green river,1,US,1570595147,29,41.53,-109.47,48.2,8.05
320,grindavik,0,IS,1570595147,100,63.84,-22.43,44.6,4.7
321,sandnessjoen,95,NO,1570595147,56,66.02,12.63,42.8,28.86
322,japura,20,ID,1570595148,56,-0.42,102.29,89.4,2.42
323,bar,100,UA,1570595148,56,49.07,27.67,43.93,9.44
324,cayenne,0,GF,1570595148,94,4.94,-52.33,75.2,6.31
325,pryazha,98,RU,1570595149,100,61.69,33.62,30.2,4.47
326,mayya,90,RU,1570595149,93,61.74,130.28,32.0,11.18
327,luanda,75,AO,1570595149,83,-8.83,13.24,75.2,9.17
328,marawi,42,PH,1570595150,80,8.0,124.29,84.99,5.99
329,san vicente de canete,71,PE,1570595150,90,-13.08,-76.38,58.3,5.68
330,ambovombe,0,MG,1570595150,64,-25.18,46.09,71.82,6.66
331,bereda,60,ES,1570595151,100,43.27,-7.54,52.0,4.7
332,halifax,75,CA,1570595151,100,44.65,-63.58,54.0,2.24
333,bibiani,100,GH,1570595151,98,6.45,-2.31,70.84,0.76
334,diu,100,IN,1570595152,67,20.71,70.98,84.34,8.89
335,tepechitlan,78,MX,1570595152,68,21.67,-103.33,60.64,6.08
336,vao,100,EE,1570595152,96,59.1,26.19,38.7,6.4
337,dingle,80,PH,1570594915,69,11.0,122.67,85.94,5.32
338,kenitra,40,MA,1570595152,93,34.26,-6.57,64.0,6.93
339,venezuela,66,CU,1570595153,91,21.74,-78.8,74.84,3.13
340,paciran,2,ID,1570595153,39,-6.9,112.33,91.94,5.77
341,bama,16,CN,1570595153,70,24.14,107.25,79.0,5.12
342,bestobe,0,KZ,1570595153,60,52.5,73.1,56.71,5.61
343,san buenaventura,0,MX,1570595154,49,27.06,-101.55,80.01,11.01
344,anadyr,20,RU,1570595154,80,64.73,177.51,35.6,8.95
345,garowe,89,SO,1570595155,76,8.41,48.48,75.6,9.39
346,tessalit,40,ML,1570595156,16,20.2,1.01,80.56,3.51
347,husavik,100,CA,1570595156,86,50.56,-96.99,52.0,4.0
348,steinbach,75,CA,1570595157,76,49.53,-96.69,57.99,4.7
349,maxixe,75,MZ,1570595157,94,-23.86,35.35,77.0,2.86
350,la ronge,40,CA,1570595157,79,55.1,-105.3,28.4,6.93
351,hamilton,20,CA,1570595117,76,43.26,-79.87,55.4,6.93
352,maraba,58,BR,1570595157,94,-5.35,-49.1,78.8,3.36
353,liwale,59,TZ,1570595158,89,-9.8,37.92,69.13,2.74
354,brae,49,GB,1570595158,93,60.4,-1.35,51.8,16.11
355,valparaiso,1,US,1570595007,66,41.47,-87.06,59.0,4.7
356,new norfolk,75,AU,1570595159,50,-42.78,147.06,61.0,12.75
357,campbell river,20,CA,1570595159,60,50.02,-125.24,46.4,9.17
358,anacortes,90,US,1570595159,81,48.5,-122.62,48.2,4.89
359,maragheh,0,IR,1570595159,41,37.39,46.24,57.2,11.41
360,artyom,0,RU,1570595160,35,43.36,132.19,60.8,8.95
361,bocas del toro,100,PA,1570595160,97,9.33,-82.25,54.0,1.01
362,christchurch,100,NZ,1570595160,49,-43.53,172.64,71.01,3.36
363,rawson,100,AR,1570595160,38,-43.3,-65.11,54.25,16.6
364,aswan,0,EG,1570595161,32,24.09,32.9,82.4,4.7
365,port harcourt,86,NG,1570595161,95,4.77,7.02,71.44,2.75
366,jacqueville,20,CI,1570595161,88,5.21,-4.42,78.8,10.29
367,axim,100,GH,1570595162,88,4.87,-2.24,77.07,14.03
368,avera,1,US,1570595162,88,33.19,-82.53,73.4,5.82
369,mahajanga,0,MG,1570594951,54,-15.72,46.32,78.8,10.29
370,aksarka,100,RU,1570595162,95,66.56,67.8,34.84,5.55
371,piacabucu,45,BR,1570595163,80,-10.41,-36.43,75.52,11.37
372,carora,100,VE,1570595163,92,10.17,-70.08,69.89,1.32
373,ossora,63,RU,1570595163,56,59.24,163.07,38.37,3.87
374,trogir,0,HR,1570595163,71,43.52,16.25,53.6,5.82
375,zlobin,52,HR,1570595164,87,45.29,14.65,57.99,5.82
376,the pas,90,CA,1570595164,55,53.82,-101.24,37.4,19.46
377,conakry,100,GN,1570595164,89,9.52,-13.7,76.84,8.76
378,oriximina,100,BR,1570595164,80,-1.77,-55.87,79.56,1.69
379,vostok,0,RU,1570595165,53,46.45,135.83,47.32,9.46
380,tolmin,74,IT,1570595165,87,46.18,13.73,57.2,1.12
381,lethbridge,90,CA,1570595067,85,49.69,-112.85,26.01,10.29
382,tooele,1,US,1570595166,30,40.53,-112.3,62.01,14.99
383,jinka,30,ET,1570595166,82,5.79,36.57,62.71,4.43
384,severnoye,100,RU,1570595166,95,54.09,52.54,36.77,9.21
385,dolinsk,75,RU,1570595167,93,47.32,142.8,48.2,4.47
386,mecca,0,SA,1570595167,25,21.43,39.83,89.98,8.46
387,qiongshan,75,CN,1570595167,59,20.01,110.35,89.6,13.42
388,katsuura,20,JP,1570595167,37,33.93,134.5,71.6,14.99
389,kolosovka,52,RU,1570595168,81,56.47,73.61,49.17,6.73
390,tiksi,100,RU,1570595168,88,71.64,128.87,25.23,12.64
391,napier,100,NZ,1570595168,48,-39.49,176.92,73.0,3.0
392,govindgarh,0,IN,1570595169,40,27.5,77.0,80.99,4.45
393,verkhoyansk,75,RU,1570595169,59,67.55,133.39,18.98,6.69
394,libertador general san martin,0,AR,1570595169,52,-23.81,-64.79,63.91,2.62
395,rio gallegos,20,AR,1570595170,74,-51.62,-69.22,42.8,29.97
396,aripuana,100,BR,1570595170,96,-9.17,-60.63,70.64,1.57
397,teavaro,90,PF,1570595170,69,-17.5,-149.77,78.8,5.82
398,olinda,75,AU,1570595170,58,-37.84,145.39,61.0,13.87
399,la gomera,100,GT,1570595171,82,14.09,-91.05,79.18,5.84
400,tasiilaq,100,GL,1570595171,80,65.61,-37.64,39.2,16.11
401,kaoma,94,ZM,1570595171,75,-14.8,24.8,65.41,3.85
402,cravo norte,97,CO,1570595171,87,6.3,-70.2,76.84,2.04
403,yerbogachen,100,RU,1570595172,83,61.28,108.01,21.18,8.95
404,panama city,1,US,1570595172,88,30.16,-85.65,78.01,6.93
405,sulangan,100,PH,1570594901,73,11.14,123.72,83.73,7.65
406,makat,100,KZ,1570595173,48,47.65,53.35,52.39,0.58
407,alice springs,0,AU,1570595173,12,-23.7,133.88,78.8,9.17
408,pimenta bueno,74,BR,1570595173,91,-11.68,-61.19,74.05,1.32
409,el prat de llobregat,40,ES,1570595174,82,41.32,2.1,70.0,4.7
410,winnemucca,1,US,1570595174,22,40.97,-117.74,64.4,12.75
411,nizhniy baskunchak,100,RU,1570595175,79,48.22,46.83,48.32,14.61
412,egvekinot,79,RU,1570595175,95,66.32,-179.17,27.35,12.73
413,turinskaya sloboda,26,RU,1570595175,91,57.62,64.39,45.01,3.31
414,sintea mare,0,RO,1570595176,81,46.52,21.61,46.4,9.17
415,bagdarin,44,RU,1570595176,48,54.44,113.59,29.8,10.52
416,thabazimbi,0,ZA,1570595176,37,-24.59,27.41,55.99,5.5
417,port blair,91,IN,1570595176,68,11.67,92.75,83.33,4.25
418,knoxville,1,US,1570595177,88,35.96,-83.92,64.0,5.4
419,cockburn town,70,TC,1570595177,80,21.46,-71.14,83.35,18.19
420,ahlat,73,TR,1570595177,50,38.75,42.49,58.59,5.49
421,dubbo,0,AU,1570595177,21,-32.25,148.6,69.8,6.93
422,hattiesburg,1,US,1570595178,88,31.33,-89.29,70.0,3.92
423,kokorevka,75,RU,1570595178,74,52.59,34.27,37.4,11.18
424,kenai,90,US,1570595178,93,60.55,-151.26,45.0,5.82
425,aden,57,YE,1570595179,68,12.79,45.03,82.06,15.93
426,talara,96,PE,1570594927,89,-4.58,-81.27,63.34,15.95
427,pilar,0,AR,1570595179,72,-34.46,-58.91,66.99,2.3
428,arman,100,RU,1570595179,84,59.7,150.17,38.66,25.54
429,saint-augustin,5,CA,1570595180,93,45.63,-73.98,46.0,2.24
430,padang,44,ID,1570594959,84,-0.92,100.36,78.26,8.66
431,yekaterinoslavka,12,RU,1570595180,65,54.34,72.46,54.23,8.52
432,vilyuysk,99,RU,1570595180,88,63.75,121.63,29.71,7.9
433,victoria point,0,AU,1570595181,46,-27.58,153.3,78.01,14.99
434,lorengau,93,PG,1570595181,71,-2.02,147.27,84.18,10.3
435,mugumu,97,TZ,1570595182,72,-1.84,34.67,64.42,4.29
436,pijijiapan,100,MX,1570595182,70,15.69,-93.21,84.52,6.98
437,matara,96,BI,1570595182,86,-3.48,29.48,51.96,3.11
438,adrar,0,DZ,1570595183,27,27.87,-0.29,64.4,9.17
439,okha,100,RU,1570595183,98,53.59,142.95,46.45,8.13
440,dickson,1,US,1570595183,87,36.08,-87.39,61.0,7.27
441,keflavik,0,IS,1570595183,100,64.0,-22.56,44.6,4.7
442,damietta,20,EG,1570595184,83,31.42,31.81,73.4,6.93
443,nacogdoches,1,US,1570595184,93,31.6,-94.66,64.4,2.86
444,union city,1,US,1570595184,93,36.42,-89.06,61.0,6.61
445,pallasovka,99,RU,1570595185,78,50.04,46.89,43.74,13.97
446,nabire,96,ID,1570595186,86,-3.36,135.5,80.44,1.05
447,ofunato,75,JP,1570595186,55,39.11,141.75,66.2,6.93
448,brigantine,20,US,1570595187,76,39.41,-74.36,63.0,9.17
449,iqaluit,75,CA,1570595187,87,63.75,-68.52,33.8,4.06
450,ishnya,90,RU,1570595187,92,57.19,39.36,32.0,6.71
451,denpasar,20,ID,1570595188,66,-8.65,115.22,86.0,10.29
452,carlyle,90,CA,1570595188,86,49.63,-102.27,39.0,19.46
453,bitkine,100,TD,1570595188,83,11.98,18.21,75.09,4.74
454,atambua,0,ID,1570595188,66,-9.11,124.89,79.16,8.88
455,tabou,100,CI,1570595189,93,4.42,-7.36,73.99,2.73
456,nhulunbuy,40,AU,1570595189,51,-12.18,136.78,86.0,13.87
457,tecoanapa,75,MX,1570595189,88,16.99,-99.26,80.6,4.7
458,veraval,0,FR,1570595190,93,49.65,0.71,53.6,12.75
459,boende,99,CD,1570595190,98,-0.28,20.88,70.03,1.84
460,cayhagan,92,PH,1570595190,67,9.67,122.43,83.87,3.06
461,hualmay,23,PE,1570594938,87,-11.1,-77.61,59.9,10.4
462,taoudenni,0,ML,1570595191,11,22.68,-3.98,81.1,7.56
463,north bend,75,US,1570595191,81,43.41,-124.22,52.0,6.93
464,beringovskiy,53,RU,1570595191,67,63.05,179.32,31.91,8.88
465,labuhan,0,ID,1570595191,33,-2.54,115.51,96.42,1.83
466,dharan,0,NP,1570595192,74,26.81,87.28,67.86,2.64
467,pasni,0,PK,1570595192,62,25.26,63.48,81.55,4.24
468,capitan bado,0,PY,1570595192,81,-23.27,-55.53,67.78,1.57
469,pacific grove,1,US,1570595193,63,36.62,-121.92,64.0,4.7
470,plouzane,75,FR,1570595194,87,48.38,-4.62,54.0,11.41
471,bowen,0,AU,1570595194,29,-20.01,148.25,91.4,12.75
472,soyo,100,AO,1570595194,87,-6.13,12.37,75.65,7.86
473,cartagena del chaira,45,CO,1570595194,99,1.33,-74.84,68.99,2.93
474,waingapu,43,ID,1570595195,81,-9.65,120.26,78.66,11.35
475,khandbari,0,NP,1570595195,69,27.38,87.21,58.21,3.91
476,yunyang,76,CN,1570595195,65,32.84,110.81,61.79,5.99
477,dumas,0,IN,1570595196,70,21.09,72.71,87.8,3.36
478,yoichi,40,JP,1570595196,55,43.19,140.77,62.6,18.34
479,half moon bay,20,US,1570595196,72,37.46,-122.43,64.4,13.87
480,pampierstad,0,ZA,1570595196,25,-27.78,24.69,56.21,6.24
481,saint george,90,GR,1570595197,100,39.45,22.34,59.0,6.93
482,todos santos,5,MX,1570595197,65,23.45,-110.23,84.99,1.58
483,poya,0,NC,1570595197,74,-21.35,165.16,72.61,11.48
484,san isidro,40,CR,1570595197,94,10.02,-84.06,73.0,3.36
485,antofagasta,90,CL,1570595198,77,-23.65,-70.4,59.0,2.24
486,kita,20,JP,1570595198,29,35.76,139.74,80.01,5.82
487,jalu,61,LY,1570595198,21,29.03,21.55,79.36,22.73
488,nanning,40,CN,1570595198,69,22.83,108.3,82.4,4.47
489,lincoln village,75,LR,1570595199,94,6.6,-10.38,75.2,1.19
490,bandarbeyla,86,SO,1570595199,85,9.49,50.81,74.64,8.86
491,turukhansk,92,RU,1570595199,80,65.8,87.96,31.26,3.27
492,sinegorye,100,RU,1570595200,65,62.09,150.53,14.92,3.18
493,benalla,0,AU,1570595200,36,-36.55,145.99,64.0,5.82
494,nelson bay,20,AU,1570595200,52,-32.72,152.14,64.99,19.46
495,sioux lookout,40,CA,1570595200,54,50.1,-91.92,59.0,9.17
496,altukhovo,94,RU,1570595201,94,55.14,39.96,32.21,8.5
497,dolores,0,UY,1570595201,86,-33.53,-58.22,57.99,3.0
498,oda,20,JP,1570595201,46,35.19,132.5,69.8,8.05
499,iquitos,75,PE,1570595201,94,-3.75,-73.25,71.6,2.24
500,saurimo,98,AO,1570595202,92,-9.66,20.4,64.15,0.2
501,kalmunai,83,LK,1570595202,74,7.42,81.82,82.33,1.48
502,zhob,0,PK,1570595202,20,31.34,69.45,59.59,3.65
503,kieta,23,PG,1570595203,69,-6.22,155.63,83.79,4.05
504,djibo,100,BF,1570595203,57,14.1,-1.63,82.8,15.05
505,marabba,43,SD,1570595203,70,12.35,32.18,78.28,5.66
506,hami,95,CN,1570595203,15,42.84,93.51,66.92,8.57
507,ilo,39,PE,1570595204,87,-17.65,-71.34,58.69,4.94
508,awjilah,61,LY,1570595204,21,29.14,21.3,79.36,22.72
509,nizhniy ufaley,100,RU,1570595204,90,55.91,59.99,39.88,2.66
510,sechura,30,PE,1570595205,88,-5.56,-80.82,61.55,9.62
511,shubarshi,93,KZ,1570595205,65,48.59,57.19,48.86,1.57
512,helong,1,CN,1570595205,55,25.94,116.13,82.61,1.25
513,langsa,100,ID,1570595205,95,4.47,97.97,75.13,2.24
514,san javier,0,BR,1570595206,82,-27.87,-55.13,60.03,3.02
515,kahului,40,US,1570595206,61,20.89,-156.47,82.4,12.75
516,price,1,US,1570595206,19,39.6,-110.81,55.99,8.05
517,welzheim,75,DE,1570595207,93,48.88,9.63,53.6,5.82
518,kloulklubed,75,PW,1570595207,66,7.04,134.26,87.8,17.22
519,ulaanbaatar,20,MN,1570595207,27,47.92,106.92,53.6,4.47
520,arica,90,CL,1570595207,67,-18.48,-70.32,60.8,4.7
521,kamloops,90,CA,1570595208,44,50.68,-120.34,39.2,11.41
522,fenoarivo,75,MG,1570595208,87,-18.93,47.44,60.8,4.7
523,namibe,86,AO,1570594975,87,-15.19,12.15,66.11,7.67
524,okhotsk,100,RU,1570595208,97,59.36,143.24,32.66,9.84
525,dzidzantun,100,MX,1570595209,82,21.25,-89.05,79.0,1.99
526,tarija,20,BO,1570595209,55,-21.53,-64.73,60.8,1.25
527,sokoto,97,NG,1570595209,81,13.06,5.24,75.56,6.15
528,morant bay,20,JM,1570595209,74,17.88,-76.41,82.4,9.17
529,puri,12,ID,1570595210,37,-7.54,112.45,94.53,5.77
530,sanming,65,CN,1570595210,65,26.24,117.6,79.86,2.64
531,minas novas,46,BR,1570595210,84,-17.22,-42.59,66.67,3.98
532,ouadda,100,CF,1570595211,94,8.07,22.4,65.43,0.72
533,narbonne,11,FR,1570595211,87,43.18,3.0,61.0,7.35
534,eenhana,38,NA,1570595211,20,-17.48,16.34,73.4,3.36
535,tefe,21,BR,1570595212,79,-3.35,-64.71,75.94,1.36
536,tarko-sale,100,RU,1570595212,91,64.92,77.78,34.0,16.11
537,mehamn,75,NO,1570595212,86,71.03,27.85,41.0,16.11
538,tracy,1,US,1570595213,26,37.74,-121.43,72.0,3.36
539,allentown,40,US,1570594920,66,40.6,-75.47,59.0,8.05
540,danville,1,US,1570595063,77,37.82,-122.0,69.01,3.36
541,mirnyy,100,RU,1570595214,96,56.57,36.46,37.13,9.06
542,mugur-aksy,0,RU,1570595214,48,50.38,90.44,39.29,4.77
543,baile herculane,30,RO,1570595214,84,44.88,22.41,36.79,4.43
544,wanaka,100,NZ,1570595214,82,-44.7,169.14,57.0,4.65
545,mumford,98,GH,1570595215,98,5.26,-0.76,72.03,2.75
546,belyy yar,94,RU,1570595215,61,53.6,91.39,46.4,6.11
547,matagami,99,NG,1570595215,97,9.67,8.4,67.82,1.36
548,alnashi,100,RU,1570595215,96,56.18,52.48,37.6,5.79
549,brownfield,75,US,1570595216,49,33.18,-102.27,73.4,16.11
550,saint-francois,100,FR,1570595216,87,46.42,3.91,55.4,4.7
551,kudahuvadhoo,35,MV,1570595216,76,2.67,72.89,81.9,11.32
552,velikiy ustyug,100,RU,1570595217,84,60.76,46.3,33.98,11.23
553,mon,90,IN,1570595107,90,26.73,95.03,76.31,2.17
554,nayudupeta,20,IN,1570595217,74,13.91,79.9,84.2,9.17
555,skjervoy,75,NO,1570595217,63,70.03,20.97,32.0,4.7
556,nuuk,1,GL,1570595218,69,64.17,-51.74,35.6,2.24
557,bundaberg,12,AU,1570595218,54,-24.87,152.35,81.0,24.16
558,nhlangano,14,SZ,1570595218,97,-27.11,31.2,56.06,3.49
559,wuwei,100,CN,1570595218,60,37.93,102.64,57.99,14.94
560,esperance,100,AU,1570595219,26,-33.86,121.89,82.4,14.99
561,bela,0,PK,1570595219,56,26.23,66.31,82.94,2.57
562,martil,0,MA,1570595219,88,35.62,-5.28,69.8,6.93
563,mangrol,7,IN,1570595219,66,25.33,76.51,84.2,5.04
564,maceio,0,BR,1570595220,94,-9.67,-35.74,69.8,3.42
565,sistranda,40,NO,1570595220,75,63.73,8.83,42.8,12.75
566,placido de castro,0,BR,1570595220,62,-10.34,-67.19,76.28,1.43
567,margate,75,AU,1570595221,50,-43.03,147.26,61.0,12.75
568,vanavara,96,RU,1570595221,56,60.35,102.28,25.27,11.61
569,rocha,0,UY,1570595221,55,-34.48,-54.34,53.96,7.45
570,presidencia roque saenz pena,0,AR,1570595221,61,-26.79,-60.44,64.9,6.02
571,vung tau,47,VN,1570595222,62,10.35,107.08,87.08,2.68
572,nioki,89,CD,1570595222,81,-2.72,17.69,72.12,2.33
573,puerto escondido,100,MX,1570595222,95,15.86,-97.07,70.99,2.21
574,saskatoon,75,CA,1570595222,68,52.13,-106.66,30.99,5.82
575,eydhafushi,47,MV,1570595223,73,5.1,73.07,82.81,7.18
576,oyek,75,RU,1570595223,69,52.59,104.46,35.6,15.66
577,wanning,75,AT,1570595223,93,48.64,13.53,57.0,5.82
578,sola,82,TZ,1570595224,62,-3.17,33.8,69.87,9.34
579,darab,0,IR,1570595224,67,28.75,54.55,58.42,3.56
580,khani,90,GE,1570595224,93,41.96,42.96,62.6,8.05
581,piriyapatna,75,IN,1570595224,88,12.34,76.1,75.2,2.68
582,magnolia,1,US,1570595225,87,33.27,-93.24,57.0,4.04
583,miles city,75,US,1570595225,75,46.41,-105.84,41.0,16.11
584,emirdag,27,TR,1570595225,96,39.02,31.15,47.66,1.57
585,xuddur,31,SO,1570595226,77,4.12,43.89,74.33,8.39
586,chivay,0,PE,1570595226,33,-15.64,-71.6,41.18,3.36
587,jiaozuo,100,CN,1570595226,77,35.21,113.25,60.44,4.71
588,walvis bay,90,NA,1570595226,87,-22.95,14.51,55.4,11.41
589,zhigalovo,100,RU,1570595227,65,54.81,105.15,28.2,9.98
590,corn island,0,NI,1570595227,71,12.17,-83.04,84.83,7.02
591,carballo,0,ES,1570595227,100,43.21,-8.69,52.0,4.7
592,compiegne,40,FR,1570595227,93,49.42,2.83,52.0,10.29
593,galle,88,GN,1570595228,98,10.08,-12.83,69.87,2.19
594,vila velha,40,BR,1570595228,74,-3.71,-38.6,79.0,16.11
595,kalga,89,RU,1570595228,44,50.92,118.9,46.58,20.92
596,henties bay,33,NA,1570595229,87,-22.12,14.28,57.56,13.2
597,dagua,75,CO,1570595229,73,3.66,-76.69,71.6,4.7
598,srednekolymsk,100,RU,1570595229,82,67.46,153.71,18.05,6.9
599,sao domingos,87,BR,1570595229,45,-13.4,-46.32,80.13,0.51
600,comodoro rivadavia,0,AR,1570595230,53,-45.87,-67.48,51.8,19.46
601,mogzon,98,RU,1570595230,51,51.74,111.97,33.69,17.14
602,mattawa,1,CA,1570594979,87,46.32,-78.7,43.0,4.7
603,esmeralda,100,CL,1570595231,77,-34.33,-70.9,53.74,4.29
604,kotelnich,0,RU,1570595231,94,58.31,48.34,29.21,6.2
605,santa rosa,100,AR,1570595112,40,-36.62,-64.29,51.06,1.74
606,san policarpo,100,PH,1570595232,67,12.18,125.51,86.0,7.92
607,abalak,77,NE,1570595232,57,15.46,6.28,81.01,2.97
608,kaura namoda,100,NG,1570595233,91,12.59,6.58,73.58,4.25
609,leshukonskoye,100,RU,1570595233,96,64.9,45.76,32.97,14.79
610,bridlington,84,GB,1570595233,87,54.08,-0.19,51.01,9.17
611,san pedro,50,AR,1570595234,70,-33.68,-59.66,57.0,3.14
612,ettaiyapuram,20,IN,1570595234,66,9.15,78.0,86.0,3.36
613,pitimbu,75,BR,1570595234,83,-7.47,-34.81,77.0,9.17
614,katima mulilo,63,NA,1570595234,44,-17.5,24.28,60.8,3.1
615,abu dhabi,0,AE,1570595177,70,24.47,54.37,86.0,8.05
616,catuday,0,PH,1570595235,75,16.29,119.81,82.62,12.12
617,lakes entrance,19,AU,1570595235,67,-37.88,147.99,57.99,3.0
618,chernihiv,98,UA,1570595237,58,51.49,31.29,41.05,15.23
619,safranbolu,1,TR,1570595237,94,41.25,32.69,47.86,2.57
620,empangeni,0,ZA,1570595237,92,-28.75,31.9,60.91,3.33
621,santiago de cao,90,PE,1570595238,87,-7.96,-79.24,60.8,8.05
622,mocuba,0,MZ,1570595238,55,-16.84,36.99,77.94,6.59
623,belaya gora,91,RU,1570595238,72,68.54,146.19,19.33,3.87
624,angoche,0,MZ,1570595238,86,-16.23,39.91,72.45,6.58
625,sooke,75,CA,1570595239,75,48.37,-123.73,48.2,2.24
626,sawtell,0,AU,1570595239,56,-30.38,153.1,71.6,21.92
627,praxedis guerrero,75,MX,1570595239,77,31.37,-106.02,69.01,5.82
628,zelenoborskiy,100,RU,1570595240,96,66.84,32.36,37.87,9.03
629,poronaysk,100,RU,1570595240,90,49.22,143.1,51.04,16.6
630,andra,100,RU,1570595240,94,62.52,65.89,39.87,2.9
631,koroni,20,GR,1570595241,77,36.8,21.96,66.0,5.82
632,south lake tahoe,1,US,1570595241,45,38.93,-119.98,64.4,4.7
633,kununurra,40,AU,1570595241,16,-15.77,128.74,102.2,11.41
634,nalut,7,LY,1570595246,87,31.86,10.98,63.3,14.74
635,batsfjord,75,NO,1570595246,93,70.63,29.72,37.4,19.46
636,svolvaer,0,NO,1570595247,60,68.23,14.57,39.2,25.28
637,zunyi,97,CN,1570595247,79,27.73,106.92,66.23,7.27
638,dergachi,100,RU,1570595247,90,51.24,48.77,45.26,9.46
639,bondo,100,CD,1570595247,99,3.81,23.69,67.73,5.1
640,hovd,75,NO,1570595248,81,63.83,10.7,42.8,12.75
641,najran,40,SA,1570595248,38,17.54,44.22,73.4,6.76
642,isangel,75,VU,1570595248,61,-19.55,169.27,82.4,3.36
643,omsukchan,100,RU,1570595249,76,62.53,155.8,15.83,3.33
644,reconquista,0,AR,1570595249,72,-29.14,-59.64,66.58,6.96
645,lira,100,UG,1570595249,90,2.25,32.9,60.94,0.78
646,teya,75,MX,1570595249,88,21.05,-89.07,79.0,4.7
647,kushiro,75,JP,1570595250,55,43.11,144.15,62.6,16.11
648,yeppoon,0,AU,1570595250,24,-23.13,150.74,91.4,12.75
649,vestmanna,61,FO,1570595250,93,62.16,-7.17,50.0,12.75
650,westport,1,US,1570595251,76,41.14,-73.36,61.0,11.41
651,kashirskoye,0,RU,1570595251,74,51.42,39.61,35.6,6.71
652,pashiya,100,RU,1570595251,88,58.43,58.26,35.65,1.57
653,uyuni,0,BO,1570595251,23,-20.46,-66.82,45.52,2.3
654,aquiraz,40,BR,1570595252,74,-3.9,-38.39,79.0,16.11
655,rizhao,21,CN,1570595252,54,35.43,119.46,68.9,6.71
656,kutum,69,SD,1570595252,65,14.2,24.66,71.99,4.5
657,west wendover,1,US,1570595252,54,40.74,-114.07,53.6,4.7
658,jasper,1,US,1570595187,106,33.83,-87.28,66.0,5.23
659,beloha,0,MG,1570595253,58,-25.17,45.06,73.69,5.1
660,ixtapa,75,MX,1570595253,83,20.71,-105.21,84.99,3.36
661,graciano sanchez,29,MX,1570595254,93,23.92,-99.28,59.88,3.28
662,coruripe,46,BR,1570595255,95,-10.12,-36.18,68.2,6.24
663,bitung,40,ID,1570595255,52,1.44,125.19,93.2,9.17
664,zaragoza,0,SV,1570594984,94,13.59,-89.29,77.0,2.24
665,chumikan,33,RU,1570595256,64,54.72,135.31,44.71,13.81
666,brasilia,40,BR,1570595256,73,-10.9,-37.55,77.0,9.17
667,montanha,0,BR,1570595256,86,-18.13,-40.37,70.25,8.07
668,tarakan,20,ID,1570595256,42,3.3,117.63,86.0,4.7
669,la maddalena,0,IT,1570595257,100,39.15,9.02,66.2,6.93
670,port-cartier,5,CA,1570595257,74,50.03,-66.88,39.0,4.7
671,la macarena,59,CO,1570595257,99,2.18,-73.79,69.58,2.48
672,acapulco,75,MX,1570595258,88,16.86,-99.88,80.6,4.7
673,dafeng,92,CN,1570595258,46,33.2,120.46,72.68,6.89
674,hellvik,75,NO,1570595258,93,59.92,5.78,48.0,16.11
675,xapuri,17,BR,1570595259,64,-10.65,-68.5,75.43,1.5
676,placer,1,US,1570595259,62,42.63,-123.32,52.0,8.05
677,kaspiyskiy,100,RU,1570595259,84,45.39,47.37,54.36,9.05
678,menongue,100,AO,1570595259,76,-14.66,17.68,61.86,5.14
679,ermioni,0,GR,1570595260,78,37.39,23.25,61.93,2.51
680,keti bandar,0,PK,1570595260,66,24.14,67.45,83.93,9.83
681,ha tinh,45,VN,1570595260,84,18.33,105.9,79.68,13.65
682,uvat,100,RU,1570595261,95,59.14,68.9,47.32,4.91
683,juneau,75,US,1570595179,52,58.3,-134.42,41.0,8.05
684,verkhnevilyuysk,100,RU,1570595261,89,63.45,120.31,25.25,6.91
685,santa helena,23,BR,1570595261,93,-2.23,-45.3,71.92,3.11
686,luxor,0,EG,1570595262,36,25.7,32.65,78.8,0.83
687,zhenhai,75,CN,1570595262,61,29.95,121.71,78.01,2.24
688,port pirie,0,AU,1570595262,48,-33.18,138.01,62.6,9.17
689,augusto correa,16,BR,1570595263,91,-1.02,-46.63,73.24,2.06
690,tanabe,20,JP,1570595263,29,33.73,135.39,75.2,12.75
691,nova olimpia,100,BR,1570595263,87,-14.8,-57.29,72.73,0.5
692,redcliffe,0,AU,1570595264,39,-31.94,115.94,86.0,12.75
693,touros,40,BR,1570595264,83,-5.2,-35.46,75.2,5.82
694,mekhe,20,SN,1570595264,83,15.11,-16.62,80.6,4.7
695,zabaykalsk,65,CN,1570595264,48,49.64,117.33,53.29,22.95
696,mae ramat,20,TH,1570595265,66,16.98,98.52,86.0,3.36
697,gouyave,20,GD,1570595265,78,12.16,-61.73,82.4,16.11
698,batemans bay,63,AU,1570595265,61,-35.71,150.18,60.01,4.0
699,muravlenko,100,RU,1570595265,81,63.79,74.5,37.0,17.83
700,harper,1,US,1570595266,52,30.3,-99.24,73.0,3.36
701,pentecoste,13,BR,1570595266,75,-3.8,-39.27,79.0,24.0
702,lebedinyy,100,RU,1570595266,86,58.52,125.52,22.35,6.79
703,conde,10,BR,1570595267,97,-11.81,-37.61,66.74,2.01
704,nahariyya,66,IL,1570595267,84,33.01,35.09,72.0,7.29
705,turtas,100,RU,1570595268,95,58.94,69.13,47.32,4.92
706,syracuse,1,US,1570595112,93,43.05,-76.15,48.0,3.74
707,mandalgovi,0,MN,1570595268,30,45.76,106.27,53.55,18.53
708,ola,100,RU,1570595268,81,59.58,151.3,37.04,20.0
709,sur,0,OM,1570595269,63,22.57,59.53,79.01,0.49
710,elur,20,IN,1570595269,74,10.07,76.3,86.0,3.36
711,boffa,100,GN,1570595269,90,10.18,-14.04,75.9,5.28
712,kouango,100,CF,1570595269,98,4.99,19.98,69.78,3.33
713,hastings,100,NZ,1570595270,66,-39.64,176.84,60.94,9.78
714,surt,100,LY,1570595270,79,31.21,16.59,68.34,6.61
715,yanam,40,IN,1570595270,79,16.73,82.22,84.2,9.17
716,villiers,0,ZA,1570595271,76,-27.03,28.6,49.82,4.07
717,ngunguru,75,NZ,1570595271,74,-35.62,174.5,68.0,8.99
718,faribault,1,US,1570595271,62,44.3,-93.27,60.01,17.22
719,victor harbor,0,AU,1570595272,48,-35.55,138.62,64.0,16.11
720,tommot,100,RU,1570595272,89,58.97,126.27,28.45,11.83
721,witney,75,GB,1570595007,87,51.78,-1.49,51.01,6.93
722,sulphur springs,1,US,1570595075,67,33.14,-95.6,63.0,4.7
723,lasa,0,CY,1570595273,82,34.92,32.53,66.2,3.36
724,ladario,63,PT,1570595273,97,40.7,-7.74,61.0,4.44
725,mount isa,23,AU,1570595273,10,-20.73,139.49,89.6,14.99
726,tongliao,0,CN,1570595273,16,43.61,122.27,71.42,17.96
727,saint-pierre,90,FR,1570595274,93,48.95,4.24,53.6,13.87
728,bonthe,100,SL,1570595274,92,7.53,-12.5,75.79,8.16
729,tavda,72,RU,1570595274,93,58.04,65.27,45.12,3.47
730,melito di porto salvo,20,IT,1570595274,68,37.92,15.77,71.01,4.7
731,iznoski,98,RU,1570595275,92,54.99,35.31,36.75,7.81
732,sarakhs,0,TM,1570595275,52,36.54,61.16,68.0,2.91
733,provost,100,CA,1570595275,65,52.35,-110.26,27.66,8.95
734,urusha,100,RU,1570595275,66,54.05,122.9,36.39,8.69
735,mwense,87,ZM,1570595276,48,-10.39,28.7,69.28,3.87
736,sept-iles,5,CA,1570595276,74,50.2,-66.38,39.0,4.7
737,coihaique,40,CL,1570595119,99,-45.58,-72.07,46.4,9.17
738,santa paz,11,BR,1570595277,74,-5.02,-39.15,73.02,7.05
739,kubrat,0,BG,1570595277,89,43.8,26.5,48.18,2.66
740,boca do acre,34,BR,1570595277,63,-8.76,-67.39,76.66,1.1
741,baltasi,100,RU,1570595278,97,56.34,50.21,37.92,4.65
742,bata,40,GQ,1570595278,100,1.87,9.77,75.2,3.36
743,tan an,40,VN,1570595278,66,10.54,106.4,89.6,3.36
744,plettenberg bay,100,ZA,1570595278,86,-34.05,23.37,59.27,11.25
745,baruun-urt,0,MN,1570595279,36,46.68,113.28,55.18,14.96
746,malinovskiy,96,RU,1570595279,93,54.15,34.53,35.31,9.46
747,troitskoye,0,RU,1570595279,63,52.98,84.68,51.46,6.78
748,dongli,75,CN,1570595279,58,24.18,117.61,84.2,11.18
749,eyl,3,SO,1570595280,82,7.98,49.82,79.27,7.55
750,vestmannaeyjar,100,IS,1570595280,81,63.44,-20.27,48.27,6.79
751,havre-saint-pierre,20,CA,1570595280,75,50.23,-63.6,41.0,6.93
752,prudy,99,UA,1570595280,63,51.33,33.8,38.82,12.1
753,pangody,100,RU,1570595281,74,65.85,74.49,34.63,18.03
754,witu,90,KE,1570595281,88,-2.39,40.44,78.8,9.86
755,zittau,96,CZ,1570595281,95,50.9,14.81,52.0,3.0
756,zhigansk,55,RU,1570595282,76,66.77,123.37,23.11,15.24
757,mahon,75,IE,1570595282,81,51.89,-8.4,50.0,9.17
758,hauterive,1,CA,1570595282,100,49.18,-68.27,44.6,3.36
759,solvychegodsk,100,RU,1570595282,89,61.33,46.92,34.23,9.98
760,mujiayingzi,72,CN,1570595283,26,42.12,118.78,59.63,21.16
761,den helder,90,NL,1570595283,76,52.96,4.76,57.2,18.34
762,cabedelo,75,BR,1570595283,83,-6.97,-34.84,77.0,9.17
763,karatuzskoye,0,RU,1570595283,68,53.61,92.87,41.48,7.7
764,tura,59,RU,1570595284,75,64.27,100.22,18.88,15.26
765,jinxi,33,CN,1570595284,55,27.92,116.75,81.27,3.05
766,pakxe,40,LA,1570595284,62,15.12,105.78,89.6,4.7
767,ust-nera,90,RU,1570595285,83,64.57,143.24,11.62,9.0
768,forestville,20,CA,1570595261,81,48.74,-69.09,44.6,5.82
769,bouloupari,90,NC,1570595285,69,-21.87,166.05,81.0,3.36
770,shache,98,CN,1570595285,67,38.42,77.24,60.01,1.01
771,mareeba,74,AU,1570595286,51,-16.99,145.42,93.99,6.93
772,shu,65,KZ,1570595286,67,43.6,73.76,59.14,5.91
773,nemuro,40,JP,1570595286,48,43.32,145.57,64.4,16.11
774,north vanlaiphai,4,IN,1570595287,61,23.13,93.07,79.48,0.84
775,buenaventura,100,CO,1570595287,96,3.89,-77.07,74.01,1.1
776,saint-georges,15,CA,1570595287,94,46.12,-70.67,37.99,0.4
777,xai-xai,81,MZ,1570595287,86,-25.04,33.64,72.84,3.27
778,clarence town,20,AU,1570595288,52,-32.59,151.78,64.99,19.46
779,ulladulla,75,AU,1570595288,45,-35.36,150.48,62.6,14.99
780,mozarlandia,100,BR,1570595288,79,-14.74,-50.57,76.03,9.31
781,svetlaya,18,RU,1570595289,54,46.54,138.33,57.4,18.15
782,constantine,40,DZ,1570595289,100,36.36,6.61,46.4,2.24
783,rio grande,12,BR,1570595289,96,-32.03,-52.1,53.01,0.29
784,les cayes,27,HT,1570595289,75,18.19,-73.75,84.43,8.57
785,umm lajj,24,SA,1570595290,31,25.02,37.27,79.56,1.51
786,singleton,20,AU,1570595290,52,-32.57,151.17,64.99,19.46
787,anchorage,75,US,1570595108,61,61.22,-149.89,48.99,2.13
788,mbocayaty,0,PY,1570595291,71,-25.7,-56.4,67.26,4.8
789,nantucket,75,US,1570595291,87,41.28,-70.1,61.0,18.34
790,senneterre,1,CA,1570595291,80,48.39,-77.24,41.0,5.82
791,chany,24,RU,1570595292,76,55.31,76.76,48.74,4.14
792,ilfracombe,100,GB,1570595292,81,51.21,-4.13,54.0,13.87
793,anda,0,CN,1570595292,26,46.41,125.33,64.85,19.08
794,klyuchi,0,RU,1570595292,60,52.25,79.17,52.39,6.02
795,naze,100,NG,1570595293,97,5.43,7.07,70.23,1.1
796,nichinan,20,JP,1570595293,50,31.65,131.31,75.2,11.41
797,hokitika,100,NZ,1570595293,90,-42.72,170.96,55.98,20.05
798,pangoa,1,PE,1570595294,85,-12.12,-73.0,68.57,2.28
799,palora,67,EC,1570595294,96,-1.7,-77.97,60.85,2.45
800,high level,90,CA,1570595294,68,58.52,-117.13,30.2,4.7
801,jiuquan,100,CN,1570595294,41,39.73,98.49,50.16,9.74
802,oranjemund,2,ZA,1570595295,92,-28.55,16.43,54.68,9.28
803,zeven,40,DE,1570595295,93,53.3,9.28,52.0,12.75
804,dakar,20,SN,1570595016,83,14.69,-17.45,80.6,4.7
805,mukhen,56,RU,1570595295,62,48.19,136.14,49.62,9.99
806,vershino-darasunskiy,38,RU,1570595296,51,52.35,115.52,38.57,11.21
807,lahaina,20,US,1570595296,51,20.87,-156.68,82.4,6.93
808,gayeri,100,BF,1570595296,89,12.65,0.49,73.4,9.46
809,vasteras,100,SE,1570595296,86,59.62,16.55,42.01,5.82
810,kumluca,6,TR,1570595297,66,36.37,30.29,64.9,2.38
811,bac,0,RS,1570595297,93,45.39,19.24,41.0,5.82
812,culiacan,5,MX,1570595298,89,24.8,-107.39,84.2,0.56
813,neiafu,75,TO,1570595298,78,-18.65,-173.98,78.8,4.7
814,havelock,90,US,1570595298,88,34.88,-76.9,66.2,16.11
815,mezen,100,RU,1570595298,96,65.85,44.24,33.48,18.09
816,shingu,20,JP,1570595299,29,33.72,135.99,75.2,12.75
817,orumiyeh,40,IR,1570595299,66,37.55,45.08,50.0,6.93
818,sakaiminato,20,JP,1570595299,46,35.55,133.23,69.8,9.17
819,moussoro,100,TD,1570595299,65,13.64,16.49,80.6,10.98
820,ucluelet,0,CA,1570595300,84,48.94,-125.55,45.0,15.05
821,aitape,100,PG,1570595300,72,-3.15,142.36,84.81,5.48
822,hirata,20,JP,1570595300,45,37.21,140.56,68.0,13.87
823,greenwood,8,CA,1570595301,84,49.09,-118.68,39.0,3.0
824,birin,75,NP,1570595301,78,26.89,88.07,77.0,3.36
825,shitanjing,100,CN,1570595301,41,39.23,106.34,60.01,1.01
826,pusad,0,IN,1570595302,66,19.91,77.57,76.04,6.22
827,bagado,100,CO,1570595302,97,5.41,-76.42,73.07,2.04
828,qaqortoq,75,GL,1570595302,86,60.72,-46.03,37.4,2.24
829,mildura,0,AU,1570595302,27,-34.18,142.16,66.0,11.41
830,kathu,0,ZA,1570595303,34,-27.7,23.05,55.0,5.5
831,vranjska banja,1,RS,1570595303,88,42.56,21.99,46.99,1.01
832,salinopolis,91,BR,1570595303,77,-0.61,-47.36,81.09,18.33
833,muroto,20,JP,1570595304,27,33.37,134.14,78.8,10.29
834,abu zabad,68,SD,1570595304,81,12.35,29.25,73.98,7.22
835,mitchell,1,US,1570595304,59,43.71,-98.03,60.8,14.99
836,henderson,1,US,1570595305,11,36.04,-114.98,80.6,12.75
837,byron bay,75,AU,1570595305,56,-28.65,153.62,73.99,17.22
838,baiquan,0,CN,1570595306,33,47.61,126.08,61.01,18.68
839,kimbe,34,PG,1570595306,71,-5.56,150.15,86.09,3.2
840,malpe,20,IN,1570595306,74,13.35,74.72,84.2,3.36
841,barra patuca,73,HN,1570595306,78,15.8,-84.28,84.34,13.63
842,kozhva,0,RU,1570595307,81,65.11,57.05,32.32,9.14
843,beroroha,0,MG,1570595307,59,-21.68,45.17,71.6,7.56
844,miraflores,0,PE,1570595307,19,-16.39,-71.52,50.0,3.36
845,belmonte,63,PT,1570595308,84,40.36,-7.35,61.0,4.45
846,saint joseph,1,US,1570595308,76,39.77,-94.85,57.99,6.93
847,buchanan,75,LR,1570595308,94,5.88,-10.05,75.2,11.83
848,lethem,100,GY,1570595308,69,3.38,-59.8,81.86,2.73
849,fort saint james,76,CA,1570595309,43,54.43,-124.25,26.67,2.04
850,bubaque,100,GW,1570595309,73,11.28,-15.83,80.31,6.2
851,nouadhibou,0,MR,1570595309,53,20.93,-17.03,77.0,13.87
852,malinovoye ozero,0,RU,1570595310,66,51.68,79.77,53.92,5.5
853,bure,26,NG,1570595310,94,10.52,10.33,69.87,2.01
854,nefteyugansk,0,RU,1570595310,86,61.09,72.61,41.0,8.95
855,brookhaven,1,US,1570595311,59,40.78,-72.92,61.0,8.05
856,batagay,34,RU,1570595311,60,67.65,134.64,15.89,5.32
857,le port,31,FR,1570595311,86,42.87,1.37,60.01,2.27
858,port augusta,0,AU,1570595312,48,-32.49,137.76,68.0,9.17
859,mangai,100,CD,1570595312,90,-4.07,19.59,70.37,0.89
860,sorong,100,ID,1570595312,62,-0.86,131.25,87.31,3.15
861,san clemente,1,US,1570595313,88,33.43,-117.61,68.0,2.21
862,fengcheng,100,CN,1570595313,51,40.45,124.07,58.58,6.29
863,puerto baquerizo moreno,82,EC,1570595313,86,-0.9,-89.6,66.76,10.44
864,chernyshevskiy,89,RU,1570595314,81,63.01,112.47,20.35,5.35
865,soritor,93,PE,1570595314,84,-6.14,-77.1,49.78,1.97
866,yabelo,67,ET,1570595314,86,4.89,38.09,61.34,5.55
867,waterloo,96,SL,1570595314,98,8.34,-13.07,72.75,2.68
868,majene,29,ID,1570595315,77,-3.54,118.97,81.57,20.2
869,haapiti,90,PF,1570595315,69,-17.57,-149.87,78.8,5.82
870,talcahuano,100,CL,1570595316,58,-36.72,-73.12,55.4,8.05
871,kasongo-lunda,100,CD,1570595316,95,-6.48,16.82,65.53,0.76
872,turriff,87,GB,1570595317,76,57.54,-2.46,52.0,9.17
873,samarai,41,PG,1570595317,67,-10.62,150.67,80.78,8.19
874,carutapera,53,BR,1570595317,76,-1.2,-46.02,78.94,8.7
875,kotturu,26,IN,1570595317,72,14.82,76.23,76.67,2.73
876,hambantota,75,LK,1570595318,88,6.12,81.12,82.4,4.7
877,staden,0,BE,1570595318,93,50.97,3.01,53.01,12.75
878,sao felix do xingu,49,BR,1570595318,95,-6.64,-51.99,71.24,0.29
879,hamburg,75,DE,1570595319,87,53.55,10.0,52.0,16.11
880,nara,0,JP,1570595319,31,34.68,135.8,75.2,8.05
881,maldonado,0,UY,1570595319,68,-34.91,-54.96,60.08,10.09
882,lianyuan,99,CN,1570595320,64,27.69,111.67,65.93,0.49
883,araouane,0,ML,1570595320,10,18.9,-3.53,86.77,12.75
884,banamba,2,ML,1570595320,71,13.55,-7.45,76.85,12.37
885,cortez,1,US,1570595321,42,37.35,-108.58,46.99,6.93
886,pudozh,100,RU,1570595321,98,61.81,36.54,34.21,7.05
887,hailar,0,CN,1570595321,53,49.2,119.7,54.72,16.43
888,suhut,6,TR,1570595322,94,38.53,30.55,47.62,1.84
889,umm kaddadah,2,SD,1570595322,65,13.6,26.69,77.23,11.97
890,yabrud,0,SY,1570595322,66,33.97,36.66,59.0,5.82
891,shuyskoye,100,RU,1570595322,94,59.37,41.03,31.87,9.74
892,koumac,0,NC,1570595323,68,-20.56,164.28,72.95,5.03
893,ust-koksa,0,RU,1570595323,57,50.27,85.62,46.76,0.54
894,mamlyutka,100,KZ,1570595323,76,54.94,68.54,50.0,6.71
895,camocim,64,BR,1570595324,85,-2.9,-40.84,72.9,6.54
896,brooks,100,CA,1570595324,81,50.57,-111.89,26.01,5.99
897,aksay,100,KZ,1570595324,71,51.17,53.01,43.0,3.78
898,nyakabindi,74,TZ,1570595324,65,-2.63,33.98,71.58,4.45
899,nha trang,20,VN,1570595325,59,12.24,109.19,91.4,8.05
900,mantua,40,IT,1570595325,93,45.16,10.79,57.2,3.36
901,mahenge,100,TZ,1570595325,78,-8.68,36.72,74.08,4.06
902,santa cruz,2,BR,1570595326,87,-6.22,-36.02,67.67,14.09
903,fort frances,1,CA,1570595326,54,48.61,-93.4,57.99,5.82
904,pontianak,75,ID,1570595326,70,-0.02,109.34,86.0,4.94
905,tondano,40,ID,1570595327,52,1.3,124.91,93.2,9.17
906,khandyga,100,RU,1570595327,93,62.65,135.58,30.09,7.7
907,matay,32,EG,1570595327,45,28.42,30.79,73.16,9.84
908,broome,94,GB,1570595327,87,52.47,1.45,51.01,5.82
909,greymouth,100,NZ,1570595328,90,-42.45,171.21,55.97,20.04
910,makakilo city,75,US,1570595328,65,21.35,-158.09,82.4,4.7
911,ornes,90,FR,1570595328,100,49.25,5.47,55.4,3.36
912,coahuayana,97,MX,1570595328,91,18.62,-100.35,73.18,2.64
913,president roxas,98,PH,1570595329,72,11.43,122.93,85.51,4.7
914,marrakesh,0,MA,1570595329,63,31.63,-7.99,64.4,4.7
915,san carlos,62,NI,1570595329,1,11.12,-84.78,72.0,3.85
916,falmouth,100,GB,1570595329,93,50.16,-5.07,54.0,12.75
917,arak,0,IR,1570595330,48,34.1,49.69,46.74,1.77
918,panaba,80,MX,1570595330,93,21.28,-88.27,76.21,5.49
919,darhan,100,MN,1570595330,93,49.49,105.92,33.71,9.37
920,alexandria,0,RO,1570595213,95,43.97,25.33,37.0,3.69
921,nador,40,MA,1570595331,82,35.17,-2.93,66.2,1.12
922,konstantinovskoye,90,RU,1570595331,100,45.3,42.64,42.8,11.18
923,camopi,47,GF,1570595332,93,3.17,-52.33,72.01,2.15
924,curup,95,ID,1570595332,49,-3.47,102.53,81.28,0.87
925,palimbang,75,PH,1570595333,55,14.9,120.78,91.4,11.41
926,pokhara,0,NP,1570595333,67,28.21,83.99,55.6,3.4
927,butembo,100,CD,1570595333,99,0.12,29.29,61.99,0.67
928,paramonga,75,PE,1570595334,93,-10.68,-77.82,57.7,10.49
929,limulunga,49,ZM,1570595334,67,-15.13,23.15,67.24,3.07
930,ojinaga,1,US,1570595334,37,29.56,-104.41,82.4,5.82
931,cape coast,98,GH,1570595334,91,5.11,-1.24,76.08,10.2
932,mazagao,40,BR,1570595335,94,-0.12,-51.29,80.6,8.05
933,waipawa,99,NZ,1570595335,63,-39.94,176.59,66.0,1.99
934,hobyo,61,SO,1570595335,81,5.35,48.53,79.14,4.43
935,okato,18,NZ,1570595336,75,-39.19,173.88,61.0,8.01
936,herat,0,AF,1570595336,21,34.35,62.22,71.6,2.24
937,pavlovsk,0,RU,1570595336,54,53.31,82.99,53.6,6.71
938,ondangwa,0,NA,1570595337,20,-17.91,15.98,73.4,3.36
939,celestun,98,MX,1570595337,81,20.87,-90.4,82.24,18.25
940,baturaja,2,ID,1570595337,34,-4.12,104.17,92.24,4.97
941,issenye,10,CM,1570595338,72,12.51,14.37,77.43,7.99
942,mabalacat,75,PH,1570595338,55,15.22,120.57,91.4,11.41
943,zyryanovsk,0,KZ,1570595338,30,49.74,84.27,55.81,1.69
944,yelan,100,RU,1570595338,91,50.95,43.74,32.0,6.94
945,bjornevatn,75,NO,1570595339,86,69.67,29.98,39.2,25.28
946,gravelbourg,100,CA,1570595339,85,49.88,-106.56,30.58,17.2
947,khorixas,6,NA,1570595339,62,-20.37,14.96,53.36,0.98
948,jiwani,0,PK,1570595340,77,25.05,61.74,83.01,14.72
949,moyale,82,ET,1570595340,79,3.52,39.05,70.52,6.29
950,tabas,0,IR,1570595340,19,33.6,56.92,66.2,4.7
951,sorland,20,NO,1570595340,69,67.67,12.69,37.4,8.05
952,farah,0,AF,1570595341,21,32.37,62.11,67.58,4.5
953,baykit,0,RU,1570595341,55,61.68,96.39,26.69,5.25
954,masindi,100,UG,1570595341,95,1.69,31.72,64.42,2.75
955,faya,0,SA,1570595342,45,18.39,42.45,62.6,6.93
956,sinnamary,38,GF,1570595342,80,5.38,-52.96,81.86,18.59
957,goderich,0,CA,1570595342,80,43.74,-81.71,50.0,8.99
958,payakumbuh,3,ID,1570595193,72,-0.23,100.63,77.74,3.38
959,cairns,100,AU,1570595343,51,-16.92,145.77,93.99,6.93
960,nandigama,75,IN,1570595343,83,16.78,80.29,82.4,3.36
961,malazgirt,82,TR,1570595343,62,39.15,42.54,47.93,4.96
962,ushirombo,84,TZ,1570595344,66,-3.47,31.9,66.09,1.54
963,liverpool,100,GB,1570595344,87,53.41,-2.98,53.01,8.05
964,chaska,1,US,1570595344,71,44.79,-93.6,60.8,4.7
965,ternate,75,PH,1570595344,66,14.29,120.72,88.0,6.93
966,joshimath,47,IN,1570595201,58,30.57,79.57,53.29,2.66
967,assiniboia,100,CA,1570595345,90,49.63,-105.99,31.71,21.0
968,port lincoln,100,AU,1570595345,60,-34.72,135.86,55.9,9.79
969,edgewood,90,US,1570595345,63,39.42,-76.29,64.0,11.41
970,eagle pass,1,MX,1570595346,53,28.71,-100.5,78.8,8.05
971,cibitoke,98,BI,1570595346,62,-2.89,29.12,64.0,1.88
972,seybaplaya,95,MX,1570595346,87,19.65,-90.67,77.25,3.42
973,sarkand,17,KZ,1570595347,30,45.41,79.91,64.92,6.53
974,mnogovershinnyy,97,RU,1570595347,65,53.94,139.92,42.44,11.54
975,poddorye,98,RU,1570595347,91,57.47,31.12,38.26,9.01
976,braniewo,87,PL,1570595347,93,54.38,19.82,50.54,16.94
977,diffa,69,NE,1570595348,56,13.32,12.61,79.81,7.76
978,katherine,42,AU,1570595348,13,-14.47,132.26,100.4,17.22
979,beihai,20,CN,1570595348,45,38.95,121.19,72.0,11.18
980,nizhniy kuranakh,100,RU,1570595348,88,58.84,125.49,25.77,9.84
981,noumea,90,NC,1570595240,69,-22.28,166.46,81.0,3.36
982,digha,100,IN,1570595349,83,21.62,87.51,78.39,5.15
983,lufkin,1,US,1570595349,87,31.34,-94.73,63.0,2.86
984,diapaga,12,BF,1570595349,95,12.07,1.79,71.4,6.1
985,pakxan,22,LA,1570595350,55,18.39,103.66,84.5,2.08
986,sibolga,80,ID,1570595350,80,1.74,98.78,78.84,1.18
987,guarapari,75,BR,1570595350,83,-20.67,-40.5,80.01,3.36
988,aloleng,58,PH,1570595351,57,16.13,119.78,88.09,3.0
989,richards bay,0,ZA,1570595351,88,-28.77,32.06,67.05,5.2
990,lynn haven,1,US,1570595351,88,30.25,-85.65,78.01,6.93
991,dunmore town,100,BS,1570595352,79,25.5,-76.65,82.7,7.76
992,oussouye,20,SN,1570595352,100,12.49,-16.54,77.0,2.24
993,vila,90,IT,1570595352,93,45.18,8.4,59.0,1.12
994,buin,0,CL,1570595352,28,-33.73,-70.74,69.8,2.24
995,mamontovo,0,RU,1570595353,74,52.71,81.63,52.12,7.29
996,ostersund,100,SE,1570595353,100,63.18,14.64,33.8,12.75
997,turayf,0,SA,1570595353,60,31.68,38.65,69.8,3.36
998,rexburg,1,US,1570595354,40,43.82,-111.79,53.6,5.82
999,pedasi,94,PA,1570595354,92,7.53,-80.03,74.06,3.67
1000,panjab,0,AF,1570595354,56,34.38,67.02,35.29,5.12
1001,gizo,12,IL,1570595355,88,31.8,34.94,71.01,1.01
1002,dzhebariki-khaya,100,RU,1570595355,84,62.22,135.8,31.77,4.06
1003,belle glade,1,US,1570595355,94,26.68,-80.67,80.01,5.82
1004,itaituba,100,BR,1570595356,97,-4.26,-55.99,73.16,2.33
1005,obama,0,JP,1570595356,37,35.49,135.74,73.0,8.01
1006,narasannapeta,100,IN,1570595356,77,18.42,84.04,81.14,3.96
1007,pauini,22,BR,1570595357,66,-7.71,-67.0,77.34,1.15
1008,gummidipundi,40,IN,1570595357,70,13.42,80.13,87.8,6.93
1009,benito juarez,75,CU,1570595358,94,22.29,-79.63,75.2,3.36
1010,ugoofaaru,83,MV,1570595358,74,5.67,73.0,82.78,9.89
1011,fomboni,54,KM,1570595358,77,-12.28,43.74,79.07,10.13
1012,puyang,100,CN,1570595359,70,35.76,115.02,61.79,5.65
1013,sarangani,75,PH,1570595359,70,5.4,125.46,84.07,9.73
1014,mpanda,98,BI,1570595359,62,-3.17,29.4,64.0,1.88
1015,amboise,48,FR,1570595360,100,47.41,0.98,57.99,8.05
1016,sonoita,1,US,1570595360,37,31.68,-110.66,77.0,3.36
1017,ceres,100,BR,1570595360,90,-15.31,-49.6,69.33,11.97
1018,alot,0,IN,1570595361,73,23.76,75.56,76.55,2.73
1019,maple creek,100,CA,1570595361,72,49.91,-109.46,29.51,13.42
1020,wheeling,1,US,1570595361,66,40.06,-80.72,54.0,6.93
1021,pivijay,75,CO,1570595362,94,10.46,-74.62,80.6,4.7
1022,lugovoy,97,RU,1570595362,87,59.72,65.88,46.58,1.57
1023,cam ranh,20,VN,1570595362,59,11.92,109.15,91.4,8.05
1024,novyy urengoy,100,RU,1570595362,80,66.08,76.63,32.77,15.88
1025,lagos,40,NG,1570595363,100,6.46,3.39,75.2,14.34
1026,ajdabiya,53,LY,1570595363,21,30.75,20.22,75.02,11.93
1027,two rivers,1,US,1570595363,100,44.15,-87.57,55.99,4.7
1028,jieshou,99,CN,1570595364,69,33.26,115.35,64.88,6.2
1029,santa cecilia,40,CR,1570595364,94,9.85,-84.31,73.0,3.36
1030,omboue,100,GA,1570595364,86,-1.57,9.26,77.65,11.03
1031,shenjiamen,33,CN,1570595364,65,29.96,122.3,69.76,11.68
1032,jawhar,19,IN,1570595365,79,19.91,73.23,80.4,4.5
1033,san ramon,59,NI,1570595365,97,12.92,-85.84,66.52,2.98
1034,lexington,1,US,1570595313,87,38.05,-84.5,61.0,7.96
1035,gamboma,0,CG,1570595365,88,-1.87,15.88,70.86,2.98
1036,smithers,1,CA,1570595366,86,54.78,-127.17,26.6,2.24
1037,banjarmasin,20,ID,1570595366,34,-3.32,114.59,95.0,12.75
1038,somanda,75,TZ,1570595367,56,-3.37,33.95,72.41,9.31
1039,nicoya,0,CR,1570595368,94,10.15,-85.45,73.4,2.24
1040,lastoursville,49,GA,1570595368,99,-0.81,12.73,69.03,0.81
1041,filadelfia,0,PY,1570595368,61,-22.35,-60.04,74.93,5.06
1042,lichuan,76,CN,1570595368,64,30.3,108.94,70.99,5.08
1043,marondera,0,ZW,1570595369,52,-18.19,31.55,68.0,12.75
1044,rockingham,99,GB,1570595369,87,52.52,-0.72,50.0,12.75
1045,aljezur,0,PT,1570595369,88,37.31,-8.8,66.99,15.01
1046,huarmey,77,PE,1570595369,75,-10.07,-78.15,61.03,1.25
1047,ambatofinandrahana,0,MG,1570595370,80,-20.55,46.8,56.69,5.91
1048,andilamena,100,MG,1570595370,84,-17.01,48.57,61.9,12.71
1049,castellaneta,5,IT,1570595371,93,40.63,16.94,61.0,2.24
1050,binzhou,89,CN,1570595372,37,37.38,117.96,78.01,1.01
1051,limbang,75,BN,1570595373,66,4.75,115.01,87.8,4.7
1052,mahibadhoo,8,MV,1570595373,70,3.78,72.97,82.79,5.3
1053,quang ngai,1,VN,1570595373,56,15.12,108.8,85.91,2.48
1054,teolocholco,79,MX,1570595374,90,19.24,-98.19,51.2,3.24
1055,inta,100,RU,1570595374,79,66.04,60.13,35.56,7.9
1056,seminole,40,US,1570595374,53,32.72,-102.64,71.6,11.41
1057,koupela,100,BF,1570595374,94,12.18,-0.35,71.87,9.06
1058,mitha tiwana,0,PK,1570595375,26,32.24,72.11,78.89,1.14
1059,corvallis,40,US,1570595304,93,44.56,-123.26,48.2,5.82
1060,mastic beach,1,US,1570595375,59,40.77,-72.85,61.0,8.05
1061,evreux,86,FR,1570595376,93,49.02,1.15,52.0,8.05
1062,bam,22,IR,1570595376,26,29.11,58.36,61.03,1.81
1063,vanimo,100,PG,1570595376,71,-2.67,141.3,83.44,8.95
1064,sandovo,91,RU,1570595377,97,58.46,36.41,34.82,7.54
1065,paso de los toros,11,UY,1570595377,63,-32.81,-56.52,56.28,2.66
1066,huangchuan,75,CN,1570595377,59,24.57,102.46,72.0,17.9
1067,minab,0,IR,1570595377,62,27.15,57.07,87.8,1.79
1068,lucera,5,IT,1570595378,87,41.51,15.34,53.6,1.12
1069,bambanglipuro,9,ID,1570595378,49,-7.95,110.28,86.65,12.34
1070,morondava,11,MG,1570595378,71,-20.3,44.28,79.36,3.87
1071,hirara,20,JP,1570595379,61,24.8,125.28,82.4,14.99
1072,prince rupert,1,CA,1570595379,56,54.32,-130.32,41.0,5.82
1073,bukachacha,78,RU,1570595379,70,52.99,116.91,35.22,10.67
1074,san francisco,66,CO,1570595380,95,1.17,-76.88,48.47,3.08
1075,port moresby,75,PG,1570595380,74,-9.47,147.16,86.0,5.82
1076,kargasok,89,RU,1570595380,81,59.06,80.87,36.05,10.81
1077,lumberton,1,US,1570595381,88,30.27,-94.2,69.8,2.48
1078,roebourne,0,AU,1570595381,8,-20.77,117.15,103.94,1.36
1079,boa vista,40,BR,1570595381,83,2.82,-60.67,78.8,3.36
1080,bhind,5,IN,1570595381,61,26.57,78.79,82.4,3.36
1081,sorata,0,BO,1570595382,61,-15.77,-68.65,46.2,11.65
1082,malacacheta,36,BR,1570595382,95,-17.84,-42.08,65.73,1.52
1083,lesozavodsk,0,RU,1570595382,46,45.47,133.42,54.81,9.67
1084,xucheng,64,CN,1570595382,58,33.0,118.51,70.77,10.15
1085,msanga,75,TZ,1570595383,93,-6.04,36.03,64.4,10.29
1086,dalupirip,35,PH,1570595383,63,16.33,120.73,82.78,6.11
1087,tashtagol,0,RU,1570595383,79,52.76,87.85,50.68,1.79
1088,iberia,59,PE,1570595383,61,-11.41,-69.49,75.67,2.51
1089,canto do buriti,2,BR,1570595384,41,-8.11,-42.94,75.29,3.62
1090,cotonou,40,BJ,1570595384,94,6.37,2.43,78.8,14.99
1091,slave lake,90,CA,1570595384,58,55.28,-114.77,30.2,17.22
1092,champerico,90,MX,1570595385,88,16.38,-93.6,75.2,4.85
1093,grand baie,75,MU,1570595385,73,-20.02,57.58,75.0,13.87
1094,alibag,75,IN,1570595385,70,18.64,72.88,86.0,3.36
1095,chapais,1,CA,1570595385,89,49.78,-74.86,32.0,4.7
1096,navalmoral de la mata,0,ES,1570595386,58,39.89,-5.54,66.0,4.23
1097,beni mazar,32,EG,1570595386,45,28.5,30.8,73.16,9.84
1098,finschhafen,100,PG,1570595386,83,-6.6,147.85,80.13,13.34
1099,lingao,2,CN,1570595387,74,19.91,109.69,82.74,12.19
1100,blagoyevo,100,RU,1570595387,96,63.37,47.92,33.04,13.82
1101,glendive,90,US,1570595387,74,47.11,-104.71,37.4,18.34
1102,mitsamiouli,40,KM,1570595387,65,-11.38,43.28,82.4,14.99
1103,nuevo progreso,40,US,1570595388,83,26.05,-97.95,82.99,3.36
1104,basco,1,US,1570595388,51,40.33,-91.2,60.8,6.93
1105,ellisras,0,ZA,1570595388,35,-23.67,27.74,67.73,11.16
1106,mangaratiba,90,BR,1570595389,94,-22.96,-44.04,71.6,5.82
1107,sayhat,0,SA,1570595389,83,26.49,50.04,87.8,3.36
1108,daru,90,PG,1570595389,73,-9.07,143.21,80.18,9.35
1109,verkhnyaya toyma,100,RU,1570595389,85,62.24,45.0,34.05,9.89
1110,bida,100,NG,1570595390,92,9.08,6.02,73.35,1.98
1111,vavuniya,15,LK,1570595390,72,8.76,80.5,82.17,3.85
1112,dalbandin,0,PK,1570595391,19,28.9,64.41,77.92,7.52
1113,ahuimanu,75,US,1570595391,65,21.44,-157.84,82.4,5.82
1114,kutiyana,5,IN,1570595391,66,21.62,69.99,87.8,6.35
1115,imbituba,20,BR,1570595391,93,-28.24,-48.67,66.2,2.24
1116,payo,5,ID,1570595392,35,-3.75,103.64,85.33,5.59
1117,lyngseidet,75,NO,1570595392,63,69.58,20.21,35.6,4.7
1118,rongcheng,84,CN,1570595392,46,37.16,122.42,64.6,8.26
1119,george town,75,MY,1570595392,70,5.42,100.33,87.8,3.36
1120,mayor pablo lagerenza,0,PY,1570595393,58,-19.93,-60.77,75.51,2.44
1121,kosh-agach,0,RU,1570595393,30,49.99,88.66,43.3,0.62
1122,abeche,100,TD,1570595393,62,13.83,20.83,75.43,7.1
1123,poplar bluff,1,US,1570595394,66,36.76,-90.39,57.0,3.85
1124,kalemie,100,CD,1570595394,93,-5.95,29.2,64.49,1.57
1125,sabana grande de boya,40,DO,1570595394,88,18.95,-69.79,82.0,4.7
1126,fria,100,GN,1570595394,98,10.36,-13.58,72.05,1.97
1127,sisimiut,67,GL,1570595395,48,66.94,-53.67,37.0,8.97
1128,krathum baen,20,TH,1570595395,70,13.65,100.26,90.0,6.93
1129,nome,1,US,1570595395,88,30.04,-94.42,73.0,4.47
1130,wilmington,90,US,1570595395,59,39.75,-75.55,60.8,9.17
1131,latung,57,ID,1570595396,41,-8.45,120.42,84.51,7.82
1132,manoel urbano,0,BR,1570595396,62,-8.84,-69.26,76.3,0.65
1133,kulhudhuffushi,100,MV,1570595396,73,6.62,73.07,82.8,8.25
1134,chickasha,1,US,1570595364,67,35.05,-97.94,64.4,8.05
1135,dawlatabad,82,AF,1570595397,21,36.41,64.91,68.52,1.45
1136,kirovskiy,0,RU,1570595397,47,45.09,133.51,54.44,11.03
1137,lang suan,40,TH,1570595397,66,9.95,99.07,89.6,5.82
1138,izacic,0,BA,1570595398,94,44.88,15.78,41.0,4.08
1139,mogadishu,28,SO,1570595398,83,2.04,45.34,80.28,8.67
1140,saint-joseph,75,FR,1570595398,82,43.56,6.97,59.0,3.36
1141,tricase,5,IT,1570595398,93,39.93,18.36,59.0,2.24
1142,sarana,100,RU,1570595399,90,56.48,57.73,36.03,1.59
1143,ankpa,100,NG,1570595399,97,7.37,7.63,68.16,3.11
1144,healdsburg,1,US,1570595399,72,38.61,-122.87,69.01,3.36
1145,lokosovo,100,RU,1570595400,89,61.13,74.84,41.31,9.12
1146,vermilion,20,CA,1570595400,79,53.35,-110.85,24.8,9.17
1147,effingham,1,US,1570595400,76,39.12,-88.54,55.0,5.49
1148,angicos,0,BR,1570595401,86,-5.67,-36.6,70.24,10.85
1149,honiara,75,SB,1570595401,74,-9.43,159.96,86.0,16.75
1150,ravar,0,IR,1570595401,8,31.27,56.81,83.17,6.18
1151,lokoja,100,NG,1570595402,94,7.8,6.74,72.12,2.91
1152,sao geraldo do araguaia,52,BR,1570595402,85,-6.4,-48.55,74.0,3.78
1153,rondonopolis,99,BR,1570595402,78,-16.46,-54.64,74.65,2.62
1154,thohoyandou,100,ZA,1570595402,76,-22.97,30.46,70.81,5.16
1155,paamiut,100,GL,1570595403,87,61.99,-49.67,39.83,9.71
1156,gawler,0,AU,1570595403,48,-34.6,138.75,64.0,16.11
1157,wagar,0,US,1570595403,80,31.44,-87.99,73.0,4.16
1158,erzin,2,TR,1570595404,77,36.95,36.2,69.01,3.36
1159,udachnyy,90,RU,1570595405,92,66.42,112.4,17.6,6.71
1160,qasigiannguit,9,GL,1570595408,53,68.82,-51.19,26.6,1.12
1161,roald,75,NO,1570595409,66,62.58,6.12,48.2,11.41
1162,launceston,90,AU,1570595409,47,-41.43,147.14,59.0,8.05
1163,hirado,20,JP,1570595409,60,33.32,129.49,78.8,11.41
1164,kachug,90,RU,1570595410,47,53.96,105.89,32.56,15.93
1165,kokopo,43,PG,1570595410,77,-4.34,152.27,81.52,0.54
1166,balakhta,14,RU,1570595411,51,55.38,91.62,43.38,3.67
1167,myrtle beach,90,US,1570595411,82,33.7,-78.89,66.99,13.87
1168,judaberg,75,NO,1570595411,87,59.17,5.87,52.0,11.41
1169,ust-maya,100,RU,1570595411,99,60.42,134.54,32.76,1.23
1170,lamu,100,CN,1570595412,87,35.77,102.37,41.81,3.87
1171,krasnyy chikoy,100,RU,1570595412,67,50.36,108.75,32.87,13.56
1172,arawa,0,ID,1570595412,70,-3.93,119.75,83.86,16.17
1173,cantavir,0,RS,1570595413,64,45.92,19.76,49.28,8.76
1174,campo grande,76,BR,1570595413,73,-20.46,-54.62,71.6,6.93
1175,rio esteban,20,HN,1570595413,79,15.83,-86.3,86.0,20.8
1176,salinas,90,US,1570595311,100,36.67,-121.66,64.99,2.8
1177,krasnomayskiy,0,RU,1570595414,66,55.0,82.52,50.0,4.47
1178,jubbal,20,IN,1570595414,82,31.11,77.67,64.4,4.02
1179,atbasar,96,KZ,1570595414,47,51.81,68.36,60.25,7.74
1180,bako,100,BF,1570595415,91,12.29,-0.73,72.41,8.28
1181,kaka,0,TM,1570595415,21,37.35,59.62,83.05,7.73
1182,concepcion,97,CO,1570595415,97,9.56,-73.66,74.61,2.26
1183,haizhou,42,CN,1570595415,36,34.58,119.13,75.53,6.67
1184,vetlanda,100,SE,1570595416,100,57.43,15.09,48.2,5.82
1185,shahrud,0,IR,1570595416,14,36.42,54.97,57.2,6.62
1186,sukhothai,20,TH,1570595416,62,17.01,99.82,89.6,3.36
1187,petrolina,0,BR,1570595417,61,-9.38,-40.5,77.0,14.99
1188,pierre,1,US,1570595361,55,44.37,-100.35,63.0,6.93
1189,bullhead city,1,US,1570595417,9,35.15,-114.57,84.2,7.78
1190,inhambane,75,MZ,1570595417,94,-23.87,35.38,77.0,12.75
1191,gubkinskiy,100,RU,1570595418,69,64.43,76.5,38.37,19.63
1192,redlands,1,US,1570595418,32,34.06,-117.19,70.0,4.03
1193,cessnock,20,AU,1570595418,52,-32.83,151.35,66.0,19.46
1194,banda aceh,93,ID,1570595418,89,5.56,95.32,78.51,2.32
1195,buritis,37,BR,1570595419,57,-15.62,-46.42,73.19,2.95
1196,fort pierce,20,US,1570595142,94,27.45,-80.33,78.01,4.85
1197,son la,69,VN,1570595419,90,21.32,103.9,74.36,2.15
1198,severodvinsk,90,RU,1570595420,93,64.56,39.82,33.8,13.42
1199,stettler,99,CA,1570595420,81,52.32,-112.71,27.0,10.0
1200,muzaffarabad,0,PK,1570595420,41,34.37,73.47,65.95,5.97
1201,togur,85,RU,1570595420,63,58.36,82.83,42.87,4.9
1202,orcopampa,0,PE,1570595421,25,-15.27,-72.34,35.98,3.74
1203,elizabethton,1,US,1570595421,93,36.35,-82.21,59.0,4.7
1204,ponta delgada,20,PT,1570595421,55,37.73,-25.67,71.01,6.93
1205,chimoio,20,MZ,1570595422,88,-19.11,33.48,69.8,2.93
1206,general pico,81,AR,1570595422,35,-35.66,-63.75,52.2,3.55
1207,jermuk,91,AM,1570595422,48,39.84,45.67,47.99,14.03
1208,mariental,100,BR,1570595423,100,-25.72,-49.65,59.0,3.36
1209,newcastle,20,AU,1570595423,52,-32.93,151.78,66.0,19.46
1210,chapada dos guimaraes,89,BR,1570595423,73,-15.46,-55.75,77.0,3.36
1211,moldava nad bodvou,90,SK,1570595423,70,48.61,21.0,45.0,8.05
1212,black forest,0,AU,1570595424,48,-34.96,138.58,64.0,16.11
1213,changji,33,CN,1570595424,48,32.07,116.17,77.8,6.4
1214,kiama,75,AU,1570595424,45,-34.67,150.86,64.0,14.99
1215,ulverstone,96,AU,1570595425,25,-41.16,146.17,64.0,8.01
1216,delijan,0,IR,1570595425,23,33.99,50.69,71.51,1.68
1217,derzhavinsk,99,KZ,1570595425,34,51.1,66.31,64.78,7.95
1218,eureka,1,US,1570595426,71,40.8,-124.16,54.0,10.29
1219,vihti,20,FI,1570595236,93,60.42,24.32,34.0,5.82
1220,santona,75,ES,1570595426,93,43.44,-3.46,60.01,8.05
1221,ambon,0,FR,1570595426,93,47.55,-2.56,57.0,3.36
1222,krasnokholmskiy,100,RU,1570595427,87,55.99,55.05,40.01,7.87
1223,pengcheng,100,CN,1570595427,66,36.43,114.17,57.76,7.67
1224,urengoy,100,RU,1570595427,71,65.96,78.37,36.7,15.43
1225,thayetmyo,0,MM,1570595428,58,19.32,95.18,91.1,1.81
1226,askarovo,20,RU,1570595428,87,53.34,58.51,42.8,2.24
1227,manggar,34,ID,1570595428,78,-2.88,108.27,81.07,12.09
1228,charyshskoye,0,RU,1570595429,50,51.4,83.56,62.02,4.83
1229,choix,0,MX,1570595429,75,26.71,-108.33,73.01,3.67
1230,manaure,14,CO,1570595429,80,11.78,-72.45,83.7,16.93
1231,kroonstad,0,ZA,1570595429,54,-27.65,27.24,42.01,4.34
1232,san luis,77,AR,1570595430,46,-33.3,-66.34,64.56,5.07
1233,palaikastron,34,GR,1570595430,78,35.2,26.25,71.01,11.01
1234,gobabis,0,NA,1570595430,19,-22.45,18.97,60.8,3.36
1235,buala,26,SB,1570595430,68,-8.15,159.59,83.77,2.19
1236,santa engracia,6,ES,1570595431,82,41.94,-1.32,62.01,3.36
1237,stawell,99,AU,1570595431,67,-37.06,142.77,53.39,6.64
1238,seoul,1,KR,1570595431,31,37.57,126.98,68.0,5.82
1239,nienburg,0,DE,1570595432,93,51.84,11.77,52.0,11.41
1240,longyan,49,CN,1570595432,58,25.1,117.03,82.44,2.35
1241,bouake,40,CI,1570595432,100,7.69,-5.02,69.8,4.7
1242,tucuman,0,PE,1570595432,56,-17.17,-70.89,47.18,3.15
1243,pizarro,99,CO,1570595433,82,4.95,-77.37,78.22,3.92
1244,ruzhyn,0,UA,1570595433,86,49.72,29.2,41.0,8.95
1245,karlskoga,90,SE,1570595433,93,59.33,14.52,41.0,5.82
1246,sambava,64,MG,1570595433,81,-14.27,50.17,74.9,3.56
1247,road town,24,VG,1570595434,74,18.42,-64.62,82.99,6.93
1248,hit,21,IQ,1570595434,24,33.64,42.83,89.35,4.43
1249,andros town,40,BS,1570595434,94,24.73,-77.79,78.8,2.24
1250,namatanai,22,PG,1570595435,77,-3.66,152.44,82.24,9.4
1251,slyudyanka,100,RU,1570595435,76,51.66,103.72,28.72,5.83
1252,sala consilina,0,IT,1570595435,67,40.4,15.6,54.47,4.88
1253,mizdah,16,LY,1570595436,90,31.45,12.98,57.96,3.76
1254,bollnas,98,SE,1570595248,98,61.35,16.39,30.99,1.52
1255,fram,0,PY,1570595436,52,-27.1,-56.02,68.0,5.82
1256,kharp,100,RU,1570595436,99,66.82,65.8,33.21,2.42
1257,marechal candido rondon,40,BR,1570595437,73,-24.56,-54.06,66.43,3.87
1258,baracoa,64,CU,1570595437,84,20.35,-74.5,82.51,10.2
1259,makaryev,55,RU,1570595438,78,57.88,43.81,35.01,8.57
1260,acurenam,84,GA,1570595438,98,1.03,10.67,67.84,2.83
1261,khash,0,IR,1570595438,19,28.22,61.21,72.05,1.25
1262,semporna,40,MY,1570595439,63,4.48,118.61,91.4,10.29
1263,naryan-mar,65,RU,1570595439,78,67.67,53.09,33.66,19.62
1264,tungor,100,RU,1570595439,97,53.39,142.95,46.94,14.58
1265,keetmanshoop,0,NA,1570595440,31,-26.57,18.15,60.8,4.7
1266,karanganom,38,ID,1570595440,56,-8.13,113.13,74.72,3.67
1267,quebec,5,CA,1570595405,93,46.83,-71.24,45.0,3.36
1268,yarada,75,IN,1570595440,79,17.65,83.27,84.2,4.7
1269,trelew,83,AR,1570595441,43,-43.25,-65.31,48.78,12.72
1270,kobryn,90,BY,1570595441,100,52.21,24.36,46.4,8.95
1271,ilhabela,100,BR,1570595441,90,-23.78,-45.36,68.43,7.92
1272,suntar,100,RU,1570595441,73,62.16,117.65,24.17,8.81
1273,neuquen,100,AR,1570595442,39,-38.95,-68.06,60.8,8.05
1274,merta,0,IN,1570595442,23,26.65,74.03,89.33,2.32
1275,dinghai,75,CN,1570595442,69,26.28,119.79,75.2,15.66
1276,ahtopol,40,BG,1570595443,93,42.1,27.94,52.0,6.93
1277,salvador,20,BR,1570595442,83,-12.98,-38.48,77.0,8.05
1278,banff,99,CA,1570595443,87,51.18,-115.57,18.0,5.99
1279,fethiye,0,TR,1570595443,93,36.62,29.12,60.8,6.93
1280,hofn,100,IS,1570595444,97,64.25,-15.21,35.6,16.13
1281,shimoda,20,JP,1570595444,46,34.7,138.93,77.0,21.92
1282,megion,100,RU,1570595444,75,61.04,76.11,39.2,11.18
1283,scarborough,100,GB,1570595444,87,54.28,-0.41,51.01,9.17
1284,sabang,84,PH,1570595445,81,13.8,121.11,84.0,5.99
1285,opuwo,0,NA,1570595445,25,-18.06,13.84,69.07,2.48
1286,puerto colombia,75,CO,1570595445,94,10.99,-74.96,80.6,4.7
1287,bilma,37,NE,1570595446,43,18.69,12.92,83.91,6.9
1288,benguela,58,AO,1570595446,88,-12.58,13.4,71.89,6.62
1289,norwich,84,GB,1570595403,87,52.63,1.29,51.01,5.82
1290,bom jesus,40,BR,1570595446,83,-5.99,-35.58,78.8,5.82
1291,tazovskiy,100,RU,1570595447,74,67.47,78.7,35.37,15.03
1292,calvia,0,ES,1570595447,82,39.57,2.51,64.0,3.36
1293,koslan,100,RU,1570595447,86,63.46,48.9,34.05,13.69
1294,puerto cabezas,0,NI,1570595447,93,14.04,-83.39,75.97,2.32
1295,conyers,90,US,1570595448,77,33.67,-84.02,71.6,3.36
1296,takoradi,98,GH,1570595448,95,4.89,-1.75,73.39,5.53
1297,krasnoye,75,RU,1570595448,93,44.87,39.46,45.0,4.47
1298,otukpo,100,NG,1570595448,95,7.19,8.13,71.77,2.66
1299,arteaga,5,MX,1570595449,55,25.45,-100.85,77.0,9.17
1300,niort,29,FR,1570595449,93,46.32,-0.46,57.2,11.41
1301,shirokiy,94,RU,1570595449,91,53.87,39.17,30.0,1.99
1302,leiyang,7,CN,1570595450,37,26.42,112.85,90.25,2.67
1303,ampanihy,0,MG,1570595450,31,-24.69,44.75,87.77,6.87
1304,merauke,69,ID,1570595450,57,-8.49,140.4,85.19,12.96
1305,morgan city,1,US,1570595450,94,29.7,-91.21,73.4,3.36
1306,kaniama,100,CD,1570595451,79,-7.57,24.18,72.14,1.14
1307,am timan,100,TD,1570595451,95,11.04,20.28,71.11,3.16
1308,pokosnoye,99,RU,1570595451,54,55.53,101.05,34.47,12.85
1309,dinar,0,TR,1570595452,87,38.07,30.16,53.6,4.7
1310,shelui,99,TZ,1570595452,47,-4.36,34.2,79.25,11.7
1311,dhangadhi,0,NP,1570595452,57,28.7,80.57,78.97,5.21
1312,dembi dolo,18,ET,1570595453,88,8.53,34.8,66.76,3.26
1313,fort thomas,1,US,1570595453,76,39.08,-84.45,57.99,3.91
1314,gunjur,75,GM,1570595454,100,13.18,-16.76,75.2,3.36
1315,hanna,99,CA,1570595455,71,51.64,-111.93,24.89,13.44
1316,ust-kuyga,0,RU,1570595455,88,70.0,135.55,7.72,4.5
1317,linhares,85,BR,1570595455,92,-19.38,-40.06,71.06,2.13
1318,maumere,62,ID,1570595456,58,-8.63,122.22,82.35,6.58
1319,lazaro cardenas,40,MX,1570595456,53,28.39,-105.62,73.4,5.82
1320,valleyview,95,CA,1570595456,74,55.07,-117.28,23.65,6.4
1321,genhe,90,CN,1570595457,44,50.78,121.52,47.66,16.04
1322,oktyabrskiy,100,RU,1570595457,82,55.61,37.97,37.4,6.71
1323,esso,73,RU,1570595457,98,55.93,158.7,31.14,8.44
1324,burnie,95,AU,1570595457,25,-41.05,145.91,64.0,8.01
1325,pedra branca,17,BR,1570595458,72,-5.46,-39.72,70.81,3.49
1326,homer,90,US,1570595458,66,59.64,-151.54,48.2,9.17
1327,plastun,0,RU,1570595458,49,44.76,136.29,53.1,11.27
1328,vangaindrano,34,MG,1570595459,86,-23.35,47.6,74.28,7.06
1329,mgandu,86,TZ,1570595459,65,-5.96,34.11,69.3,13.86
1330,guantanamo,2,BO,1570595459,68,-16.14,-62.05,69.71,2.28
1331,ketchikan,1,US,1570595459,60,55.34,-131.65,44.6,11.41
1332,zlitan,4,LY,1570595460,59,32.47,14.57,71.17,4.63
1333,lamar,1,US,1570595460,48,38.09,-102.62,64.4,17.22
1334,lincoln,1,US,1570595460,71,40.8,-96.67,61.0,12.75
1335,atasu,0,KZ,1570595460,23,48.68,71.64,70.07,5.86
1336,ponnani,40,IN,1570595461,62,10.77,75.93,87.8,3.36
1337,sawakin,0,SD,1570595461,37,19.1,37.33,85.39,9.13
1338,baherden,0,TM,1570595462,25,38.44,57.43,75.91,2.37
1339,beckley,90,US,1570595462,87,37.78,-81.19,57.2,6.93
1340,qom,0,IR,1570595462,15,34.64,50.88,82.72,8.38
1341,gubkin,70,RU,1570595462,62,51.28,37.53,41.74,15.1
1342,otjiwarongo,0,NA,1570595463,13,-20.46,16.65,69.8,4.7
1343,salisbury,100,GB,1570595463,87,51.07,-1.8,53.01,8.05
1344,ladnun,0,IN,1570595464,21,27.64,74.39,89.11,1.83
1345,bosanska krupa,1,BA,1570595464,78,44.88,16.15,45.61,3.06
1346,vallenar,73,CL,1570595464,70,-28.58,-70.76,50.9,1.93
1347,fare,99,PF,1570595464,86,-16.7,-151.02,74.77,23.58
1348,challans,75,FR,1570595465,93,46.85,-1.88,55.4,6.93
1349,ouesso,100,CG,1570595465,98,1.61,16.05,70.09,1.25
1350,matane,20,CA,1570595465,81,48.83,-67.52,44.6,5.82
1351,cururupu,72,BR,1570595466,83,-1.82,-44.87,74.23,2.89
1352,ostrov,97,RU,1570595466,93,57.34,28.36,37.4,4.47
1353,carepa,95,CO,1570595466,98,7.76,-76.65,70.16,3.25
1354,zyryanka,1,RU,1570595467,52,65.73,150.89,24.5,7.83
1355,malmesbury,75,GB,1570595467,100,51.58,-2.1,51.01,10.29
1356,guntakal,0,IN,1570595467,56,15.16,77.38,84.04,2.37
1357,boyolangu,8,ID,1570595467,35,-8.09,111.9,92.07,7.78
1358,tuy hoa,77,VN,1570595229,62,13.08,109.3,85.03,6.35
1359,cacheu,40,GW,1570595468,100,12.27,-16.16,77.0,2.24
1360,mulchen,100,CL,1570595468,57,-37.72,-72.23,47.28,2.77
1361,tomatlan,3,MX,1570595469,90,19.93,-105.25,81.16,5.68
1362,zhuhai,0,CN,1570595469,42,40.71,112.04,62.6,8.95
1363,the valley,40,AI,1570595469,74,18.22,-63.06,84.2,6.93
1364,samoded,99,RU,1570595469,92,63.61,40.52,33.42,13.94
1365,catacocha,89,EC,1570595470,88,-4.05,-79.65,62.96,1.03
1366,mazatlan,40,MX,1570595294,94,23.22,-106.42,86.0,3.36
1367,ulcinj,0,ME,1570595470,71,41.93,19.22,51.8,2.24
1368,jos,98,NG,1570595470,94,9.92,8.9,68.06,2.77
1369,pilibhit,0,IN,1570595471,78,28.63,79.81,80.6,4.7
1370,nioro,100,GM,1570595471,97,13.79,-15.05,73.91,2.93
1371,xichang,77,CN,1570595471,67,27.88,102.25,61.72,10.53
1372,columbus,1,US,1570595472,71,39.96,-83.0,54.0,3.36
1373,emba,0,CY,1570595472,82,34.81,32.42,66.2,3.36
1374,panipat,0,IN,1570595472,37,29.39,76.98,86.72,4.34
1375,tupik,100,RU,1570595472,85,54.43,119.94,29.9,4.5
1376,muleba,75,TZ,1570595473,93,-1.84,31.66,66.2,5.82
1377,uromi,96,NG,1570595473,97,6.71,6.33,71.01,0.75
1378,tra vinh,81,VN,1570595473,53,9.93,106.35,90.77,7.92
1379,mattru,86,SL,1570595474,98,7.62,-11.83,71.69,2.15
1380,deogarh,49,IN,1570595474,67,21.53,84.72,84.18,3.07
1381,skibbereen,75,IE,1570595474,81,51.55,-9.27,46.4,9.17
1382,pio xii,4,BR,1570595474,94,-3.89,-45.17,72.09,1.86
1383,matamoros,1,US,1570595475,78,25.87,-97.51,82.99,4.7
1384,palana,83,RU,1570595475,88,59.08,159.95,42.8,12.1
1385,kano,20,NG,1570595475,94,11.99,8.53,71.6,3.36
1386,riyadh,0,SA,1570595476,47,24.63,46.72,80.6,2.24
1387,quchan,0,IR,1570595476,25,37.11,58.51,69.71,3.29
1388,boulsa,100,BF,1570595476,91,12.66,-0.57,72.41,8.28
1389,mega,41,ET,1570595477,51,4.06,38.32,79.85,15.12
1390,fontem,100,CM,1570595477,96,5.49,9.85,63.27,1.4
1391,zhanjiang,13,CN,1570595477,76,21.2,110.4,81.86,16.79
1392,sainte-maxime,0,FR,1570595478,87,43.31,6.64,62.01,3.51
1393,zhengjiatun,0,CN,1570595478,22,43.51,123.51,71.01,20.69
1394,akwatia,95,GH,1570595478,98,6.04,-0.8,71.19,1.06
1395,meadow lake,79,CA,1570595479,77,54.13,-108.44,23.97,6.33
1396,rhyl,0,GB,1570595479,87,53.32,-3.49,53.6,8.05
1397,barsovo,0,RU,1570595479,86,61.17,73.17,41.0,8.95
1398,manerbio,75,IT,1570595479,87,45.36,10.14,57.2,2.13
1399,tabuk,23,PH,1570595480,76,17.41,121.44,83.07,11.65
1400,shibetsu,75,JP,1570595480,87,44.15,142.46,55.4,5.82
1401,verkhnyaya inta,100,RU,1570595480,70,65.99,60.32,37.98,9.46
1402,plerin,100,FR,1570595481,81,48.54,-2.78,53.6,16.11
1403,sokolo,8,ML,1570595481,65,14.74,-6.12,78.78,11.79
1404,nargana,82,PA,1570595481,86,9.44,-78.59,78.34,9.06
1405,santa maria,90,BR,1570595482,88,-16.02,-48.01,69.8,11.41
1406,oxilithos,20,GR,1570595482,77,38.58,24.12,64.4,11.41
1407,swan hill,7,AU,1570595482,46,-35.34,143.56,61.9,14.24
1408,fort-shevchenko,100,KZ,1570595482,71,44.51,50.26,61.96,15.41
1409,ust-uda,92,RU,1570595483,53,54.17,103.03,36.54,13.8
1410,ekhabi,100,RU,1570595483,97,53.51,142.97,45.9,10.05
1411,korhogo,95,CI,1570595483,96,9.46,-5.63,69.82,6.44
1412,formosa,99,BR,1570595484,68,-15.55,-47.33,70.97,6.04
1413,cloquet,1,US,1570595484,54,46.72,-92.46,59.0,11.62
1414,duldurga,90,RU,1570595484,45,50.67,113.59,38.59,16.37
1415,tambovka,100,RU,1570595484,78,47.32,47.38,50.63,14.3
1416,valreas,0,FR,1570595485,87,44.38,4.99,57.99,1.12
1417,vadamadurai,5,IN,1570595485,55,10.47,78.08,87.41,6.06
1418,caxias do sul,27,BR,1570595486,84,-29.17,-51.18,63.0,1.99
1419,jieshi,51,CN,1570595486,60,22.82,115.83,87.01,6.42
1420,wajima,0,JP,1570595486,39,37.4,136.9,66.2,4.7
1421,rosetown,100,CA,1570595487,77,51.55,-107.99,27.0,1.01
1422,naxos,40,GR,1570595487,72,37.11,25.38,68.0,13.87
1423,espanola,0,CA,1570595487,94,46.27,-81.77,39.99,3.89
1424,yatou,75,CM,1570595488,100,3.63,9.81,75.2,3.36
1425,benghazi,75,LY,1570595488,50,32.12,20.07,78.87,33.88
1426,mbandaka,94,CD,1570595488,94,0.05,18.26,73.63,1.88
1427,chulym,47,RU,1570595488,64,55.09,80.97,55.11,7.52
1428,orsha,90,BY,1570595489,86,54.51,30.43,39.2,11.18
1429,torata,90,EC,1570595489,33,-3.6,-79.89,89.6,6.93
1430,sao raimundo das mangabeiras,14,BR,1570595489,66,-7.02,-45.48,77.41,0.39
1431,azoyu,96,MX,1570595489,96,16.72,-98.73,75.07,2.92
1432,amboasary,20,MG,1570595490,83,-25.04,46.38,73.4,20.8
1433,sayyan,22,YE,1570595490,38,15.17,44.32,63.01,9.09
1434,maragogi,20,BR,1570595490,74,-9.01,-35.22,77.76,13.13
1435,samana,56,EC,1570595491,99,0.12,-76.97,68.31,1.25
1436,kutulik,95,RU,1570595491,59,53.35,102.79,37.44,12.71
1437,chicaman,100,GT,1570595491,97,15.4,-90.73,59.18,1.97
1438,porgera,100,PG,1570595492,95,-5.46,143.15,57.79,1.74
1439,awbari,66,LY,1570595492,51,26.59,12.77,63.75,6.08
1440,balikpapan,100,ID,1570595492,80,-1.24,116.86,82.6,4.83
1441,terrace bay,67,CA,1570595493,89,48.78,-87.1,49.46,10.11
1442,viking,83,CA,1570595493,63,53.1,-111.78,26.78,10.21
1443,belfast,94,GB,1570595493,87,54.6,-5.93,48.99,12.75
1444,alekseyevsk,98,RU,1570595494,58,57.84,108.35,26.17,8.75
1445,trairi,36,BR,1570595494,86,-3.28,-39.27,71.46,5.91
1446,vyazma,99,RU,1570595494,96,55.21,34.3,36.4,11.5
1447,felipe carrillo puerto,84,MX,1570595494,97,19.58,-88.05,73.06,1.39
1448,rajura,64,IN,1570595495,64,19.78,79.37,84.74,6.2
1449,marienburg,20,DE,1570595495,81,52.12,9.98,54.0,11.41
1450,nikolayevsk-na-amure,100,RU,1570595495,73,53.14,140.72,45.91,5.77
1451,puerto del rosario,20,ES,1570595496,77,28.5,-13.86,69.8,8.05
1452,sinnar,9,IN,1570595496,63,19.85,74.0,82.17,7.24
1453,salekhard,100,RU,1570595496,93,66.54,66.62,37.51,5.0
1454,kathmandu,40,NP,1570595497,73,27.71,85.32,69.8,4.7
1455,jiazi,75,CN,1570595497,59,19.61,110.49,89.6,13.42
1456,manicore,84,BR,1570595497,98,-5.81,-61.3,73.35,2.5
1457,gorontalo,46,ID,1570595497,50,0.54,123.06,86.14,6.55
1458,myskhako,59,RU,1570595498,64,44.66,37.76,51.1,7.36
1459,tokur,89,RU,1570595498,57,53.13,132.9,43.25,3.09
1460,general roca,0,AR,1570595498,39,-39.03,-67.58,60.8,8.05
1461,balaguer,30,ES,1570595499,77,41.79,0.81,62.6,10.29
1462,manokwari,100,ID,1570595499,82,-0.87,134.08,78.64,3.0
1463,tongchuan,90,CN,1570595499,100,34.9,108.95,55.4,8.95
1464,coracora,0,PE,1570595500,38,-15.02,-73.78,46.01,1.5
1465,wundanyi,81,KE,1570595500,74,-3.4,38.37,72.25,8.59
1466,kazerun,0,IR,1570595500,46,29.62,51.65,84.16,1.67
1467,camaqua,61,BR,1570595501,95,-30.85,-51.81,57.38,1.7
1468,oranjestad,40,AW,1570595501,79,12.52,-70.03,84.2,11.41
1469,bastia,40,IT,1570595501,72,44.6,8.98,64.4,6.93
1470,melfort,40,CA,1570595501,68,52.87,-104.61,30.2,8.05
1471,marzuq,73,YE,1570595502,34,14.4,46.47,74.97,1.03
1472,livingston,1,US,1570595502,88,32.58,-88.19,66.0,3.67
1473,markova,75,RU,1570595502,69,52.21,104.21,35.6,15.66
1474,nanticoke,1,US,1570595503,100,41.21,-76.0,53.01,4.16
1475,doba,40,ET,1570595503,56,9.29,41.09,76.27,2.44
1476,matveyevka,60,RU,1570595503,66,54.92,83.08,50.0,4.47
1477,gisborne,43,NZ,1570595504,48,-38.66,178.02,73.0,3.0
1478,yam,0,UZ,1570595504,21,40.03,68.52,72.68,7.31
1479,hanyang,100,CN,1570595504,92,32.14,105.51,56.07,4.36
1480,gayduk,68,RU,1570595505,64,44.79,37.7,48.58,5.0
1481,lahij,45,YE,1570595505,58,13.06,44.88,86.7,19.68
1482,toamasina,75,MG,1570595505,94,-18.17,49.38,71.6,3.36
1483,muswellbrook,73,AU,1570595506,45,-32.27,150.89,61.45,9.44
1484,ishigaki,40,JP,1570595506,74,24.34,124.16,80.6,19.46
1485,kyzyl-suu,41,KG,1570595506,51,42.34,78.0,57.2,1.59
1486,mae sai,20,MM,1570595507,70,20.44,99.89,84.2,4.7
1487,forssa,90,FI,1570595511,100,60.82,23.63,34.0,3.36
1488,capaci,0,IT,1570595512,83,38.17,13.24,66.99,3.33
1489,amarillo,1,US,1570595409,56,35.21,-101.83,69.8,20.8
1490,bumba,100,CD,1570595512,95,2.18,22.47,71.82,3.96
1491,nizamabad,36,IN,1570595513,70,18.67,78.1,81.94,6.42
1492,teknaf,4,BD,1570595513,46,20.86,92.31,93.43,2.69
1493,druzhba,99,UA,1570595513,59,52.05,33.94,42.3,18.48
1494,van buren,1,US,1570595514,86,47.16,-67.94,42.8,4.7
1495,santiago del estero,0,AR,1570595514,46,-27.8,-64.26,67.66,8.44
1496,xingcheng,91,CN,1570595514,24,40.62,120.71,74.25,19.39
1497,presque isle,1,US,1570595514,100,46.68,-68.02,41.0,3.36
1498,agirish,100,RU,1570595515,67,61.92,63.02,42.37,4.03
1499,sao jose da coroa grande,20,BR,1570595515,74,-8.9,-35.15,77.76,13.13
1500,flinders,75,AU,1570595515,45,-34.58,150.85,64.99,14.99
1501,madisonville,1,US,1570595516,81,37.33,-87.5,55.4,5.48
1502,ranong,40,TH,1570595516,66,9.96,98.62,89.6,5.82
1503,nizwa,0,OM,1570595516,32,22.93,57.53,81.59,2.66
1504,venice,1,US,1570595516,94,27.1,-82.45,77.0,3.86
1505,karpathos,20,GR,1570595517,88,35.51,27.21,69.8,5.82
1506,johnson city,1,US,1570595517,93,36.31,-82.35,59.0,4.7
1507,anzio,0,IT,1570595517,76,41.45,12.63,62.01,4.7
1508,chara,90,GR,1570595517,100,39.42,22.43,59.0,4.7
1509,mingoyo,75,TZ,1570595518,94,-10.1,39.64,75.2,6.93
1510,luganville,75,VU,1570595518,74,-15.51,167.18,82.4,10.29
1511,yangambi,100,CD,1570595518,98,0.77,24.47,69.89,3.6
1512,popondetta,52,PG,1570595519,88,-8.77,148.24,73.22,5.3
1513,melilla,90,EC,1570595519,88,-0.8,-80.23,71.6,6.93
1514,rena,0,ES,1570595519,86,39.05,-5.81,63.0,3.0
1515,timra,90,SE,1570595520,100,62.49,17.33,41.0,5.82
1516,pestravka,100,RU,1570595520,82,52.4,49.95,46.49,10.74
1517,westerland,90,NL,1570595520,76,52.89,4.93,55.99,18.34
1518,ambala,20,IN,1570595520,88,30.38,76.77,77.0,2.24
1519,kikwit,100,CD,1570595521,88,-5.04,18.82,73.85,0.36
1520,sangar,92,RU,1570595521,52,63.92,127.47,33.79,7.47
1521,clyde,97,NZ,1570595522,83,-45.19,169.32,57.0,1.01
1522,honningsvag,75,NO,1570595522,80,70.98,25.97,41.0,18.34
1523,maua,83,KE,1570595522,71,0.23,37.94,59.11,7.96
1524,schenectady,40,US,1570595522,87,42.81,-73.94,48.0,4.65
1525,gorin,100,BF,1570595523,91,12.34,-0.67,72.41,8.28
1526,sokoni,37,CD,1570595524,40,-12.89,28.78,76.39,8.58
1527,kadaya,100,RU,1570595524,35,50.93,119.29,48.49,19.13
1528,isla vista,1,US,1570595524,87,34.41,-119.86,62.6,2.28
1529,quatre cocos,75,MU,1570595524,73,-20.21,57.76,75.0,13.87
1530,meleuz,100,RU,1570595525,57,52.96,55.93,45.36,7.83
1531,zyukayka,100,RU,1570595525,95,58.2,54.7,35.44,2.15
1532,francisco sa,0,BR,1570595525,47,-16.48,-43.49,75.2,4.7
1533,pustoshka,99,RU,1570595526,96,56.34,29.37,38.16,6.62
1534,weyburn,97,CA,1570595526,95,49.67,-103.85,36.28,15.99
1535,xining,100,CN,1570595526,90,36.62,101.77,42.75,3.0
1536,igrim,94,RU,1570595527,72,63.19,64.42,41.85,2.73
1537,jonesboro,1,US,1570595492,67,35.84,-90.7,57.2,3.36
1538,grootfontein,0,NA,1570595527,12,-19.56,18.1,73.26,12.03
1539,bushehr,0,IR,1570595527,79,28.97,50.84,89.6,2.24
1540,tashtyp,95,RU,1570595528,81,52.8,89.89,39.62,3.87
1541,natal,40,BR,1570595528,83,-5.81,-35.21,78.8,5.82
1542,tepla,20,IN,1570595528,88,30.31,76.95,77.0,2.24
1543,banes,5,CU,1570595528,94,20.96,-75.72,78.8,4.7
1544,ornskoldsvik,75,SE,1570595529,94,63.29,18.72,37.4,5.82
1545,gasa,60,BT,1570595529,77,27.91,89.73,36.56,9.08
1546,pau dos ferros,32,BR,1570595529,80,-6.11,-38.21,67.34,5.79
1547,khorramabad,0,IR,1570595530,48,33.48,48.35,60.8,4.7
1548,ocos,90,GT,1570595530,100,14.51,-92.19,73.4,3.36
1549,petropavlovsk-kamchatskiy,75,RU,1570595530,70,53.05,158.65,46.4,17.9
1550,nizhniy chir,75,RU,1570595530,57,48.36,43.08,43.96,6.29
1551,shaoyang,40,CN,1570595531,48,27.23,111.45,79.65,5.61
1552,bafia,96,CM,1570595531,96,4.74,11.22,69.03,0.43
1553,colares,20,PT,1570595531,77,38.8,-9.45,63.0,12.75
1554,mbulu,100,TZ,1570595531,89,-3.86,35.54,59.08,6.33
1555,olga,1,US,1570595532,77,34.11,-118.17,66.99,3.36
1556,farafangana,22,MG,1570595532,82,-22.82,47.83,74.43,19.14
1557,ginda,40,IN,1570595532,73,30.69,78.49,75.2,3.65
1558,gilgit,28,PK,1570595532,44,35.92,74.31,40.82,1.99
1559,puerto leguizamo,28,CO,1570595533,99,-0.19,-74.78,69.03,1.5
1560,raymond,90,CA,1570595533,85,49.47,-112.67,26.01,10.29
1561,glomfjord,75,NO,1570595534,55,66.82,13.94,37.4,13.87
1562,damghan,0,IR,1570595534,18,36.17,54.34,75.67,1.82
1563,ajaccio,2,FR,1570595534,82,41.93,8.74,57.2,8.05
1564,demba,100,CD,1570595535,90,-5.47,22.27,73.51,1.88
1565,ebensee,20,DE,1570595535,93,49.47,11.14,51.01,5.82
1566,ambositra,2,MG,1570595535,65,-20.53,47.24,65.28,4.76
1567,parana,33,BR,1570595536,90,-7.52,-72.89,70.83,1.94
1568,tautira,90,PF,1570595536,69,-17.73,-149.15,78.8,5.82
1569,sarh,20,TD,1570595536,94,9.14,18.39,73.4,1.59
1570,aksha,100,RU,1570595536,33,50.28,113.29,41.94,23.58
1571,vanderhoof,5,CA,1570595537,47,54.02,-124.02,26.29,2.46
1572,novobelokatay,100,RU,1570595537,84,55.7,58.96,43.24,5.46
1573,zhanaozen,87,KZ,1570595537,60,43.35,52.85,66.73,7.78
1574,sobolevo,96,RU,1570595538,87,54.43,31.9,38.36,17.0
1575,bregovo,34,BG,1570595538,64,44.15,22.64,46.39,1.36
1576,ulaangom,8,MN,1570595538,27,49.98,92.07,62.42,4.99
1577,ongandjera,81,NA,1570595538,13,-17.88,15.07,70.0,6.78
1578,varberg,77,SE,1570595445,93,57.11,12.25,51.8,13.87
1579,sai buri,75,TH,1570595539,79,6.7,101.62,84.2,2.24
1580,mayumba,98,GA,1570595539,87,-3.44,10.65,76.55,11.05
1581,nong ki,75,TH,1570595540,83,14.69,102.54,84.2,8.05
1582,talaya,0,RU,1570595540,56,55.79,84.89,42.01,8.95
1583,penzance,100,GB,1570595540,82,50.12,-5.53,54.0,21.99
1584,bayshore gardens,1,US,1570595420,94,27.43,-82.59,78.01,13.06
1585,mokokchung,54,IN,1570595541,65,26.32,94.52,82.04,3.31
1586,morlaix,100,FR,1570595541,93,48.58,-3.83,54.0,11.41
1587,kondagaon,36,IN,1570595541,64,19.59,81.66,85.03,2.95
1588,noyabrsk,100,RU,1570595542,79,63.2,75.45,39.38,18.46
1589,iztapa,100,GT,1570595542,89,13.93,-90.71,75.56,5.41
1590,geisenheim,75,DE,1570595542,100,49.99,7.97,53.01,10.29
1591,juba,96,EE,1570595543,86,57.82,26.93,39.2,5.82
1592,tomioka,0,JP,1570595543,38,36.26,138.87,73.0,4.0
1593,collie,100,AU,1570595543,32,-33.36,116.15,81.0,4.12
1594,abong mbang,100,CM,1570595543,99,3.98,13.18,68.13,1.5
1595,mutoko,35,ZW,1570595544,35,-17.4,32.23,80.42,7.27
1596,ushtobe,86,KZ,1570595544,25,45.25,77.98,69.06,5.87
1597,rouvroy,66,FR,1570595545,93,50.39,2.9,53.01,12.75
1598,nedumangad,20,IN,1570595545,74,8.61,77.0,86.0,6.93
1599,beyneu,100,KZ,1570595545,22,45.32,55.19,70.69,15.01
1600,ardakan,20,IR,1570595545,17,32.31,54.02,73.4,2.24
1601,puerto carreno,65,CO,1570595546,92,6.19,-67.49,75.33,4.4
1602,pemba,20,MZ,1570595546,94,-12.97,40.52,75.2,5.82
1603,nizhniy ingash,33,RU,1570595546,61,56.2,96.53,37.46,6.2
1604,stalybridge,97,GB,1570595547,87,53.48,-2.06,52.0,5.82
1605,maues,100,BR,1570595547,97,-3.38,-57.72,73.48,2.35
1606,shanghai,40,CN,1570595257,53,31.23,121.49,75.2,8.95
1607,kanadey,91,RU,1570595548,78,53.17,47.53,36.95,10.6
1608,alyangula,37,AU,1570595548,41,-13.85,136.42,91.4,4.7
1609,gudari,91,IN,1570595548,87,19.34,83.79,74.97,0.81
1610,manakara,10,MG,1570595548,76,-22.14,48.01,76.3,8.57
1611,bath,100,GB,1570595356,93,51.38,-2.36,52.0,8.05
1612,grand-bourg,34,GP,1570595549,88,15.88,-61.31,77.0,1.12
1613,labuan,75,BN,1570595549,74,5.28,115.24,87.8,4.7
1614,birjand,0,IR,1570595549,19,32.86,59.22,66.2,6.93
1615,tyrma,6,RU,1570595550,52,50.04,132.17,52.45,4.25
1616,vila do maio,20,CV,1570595550,74,15.13,-23.22,78.8,6.93
1617,chake chake,82,TZ,1570595550,81,-5.25,39.77,79.99,19.19
1618,mtwara,75,TZ,1570595550,94,-10.28,40.18,75.2,6.93
1619,novo aripuana,100,BR,1570595551,91,-5.12,-60.38,71.55,1.79
1620,tulun,78,RU,1570595551,60,54.56,100.58,37.06,12.21
1621,vichy,90,FR,1570595551,82,46.12,3.42,55.4,2.24
1622,nahrin,21,AF,1570595552,19,36.06,69.13,70.56,6.08
1623,cabo rojo,100,PR,1570595533,89,18.09,-67.15,82.0,15.57
1624,kurchum,0,KZ,1570595552,29,48.57,83.65,66.02,10.83
1625,mahanoro,15,MG,1570595552,78,-19.9,48.8,74.88,9.71
1626,pundaguitan,73,PH,1570595553,75,6.37,126.17,83.16,9.85
1627,alenquer,40,BR,1570595553,94,-1.95,-54.74,77.0,1.12
1628,mabaruma,87,GY,1570595553,98,8.2,-59.78,73.11,0.59
1629,hillsboro,1,US,1570595554,76,39.2,-83.61,55.99,5.82
1630,corumba,0,BR,1570595554,59,-19.0,-57.65,72.72,2.13
1631,santo domingo,40,DO,1570595394,88,18.48,-69.94,82.0,4.7
1632,lhokseumawe,99,ID,1570595554,93,5.18,97.15,74.56,2.28
1633,terre haute,1,US,1570595555,93,39.47,-87.41,53.01,3.36
1634,jiaocheng,29,CN,1570595555,49,24.68,116.14,87.26,1.91
1635,kodinsk,0,RU,1570595555,44,58.6,99.18,33.52,8.41
1636,dongtai,40,CN,1570595555,57,32.85,120.31,78.01,9.55
1637,akdepe,0,TM,1570595556,39,42.05,59.39,64.4,6.93
1638,dodge city,1,US,1570595556,59,37.75,-100.02,63.0,20.8
1639,tazmalt,0,DZ,1570595557,87,36.39,4.4,60.8,10.29
1640,kilindoni,100,TZ,1570595557,80,-7.91,39.67,79.87,16.58
1641,obo,100,CF,1570595557,96,5.39,26.49,70.83,6.02
1642,manado,40,ID,1570595403,52,1.49,124.85,93.2,9.17
1643,tsumeb,4,NA,1570595558,11,-19.25,17.72,80.32,8.68
1644,kaputa,64,ZM,1570595558,31,-8.47,29.66,83.37,2.6
1645,songadh,0,IN,1570595559,52,21.71,71.89,88.63,6.31
1646,buarcos,20,PT,1570595559,77,40.16,-8.88,66.0,18.34
1647,iaciara,20,BR,1570595559,50,-14.1,-46.63,76.73,4.57
1648,sindor,100,RU,1570595559,77,62.87,51.9,33.3,10.75
1649,yining,0,CN,1570595560,41,29.04,114.56,89.24,1.41
1650,shimanovsk,100,RU,1570595560,72,52.0,127.67,48.38,7.47
1651,tarnos,75,FR,1570595560,93,43.54,-1.46,62.01,4.7
1652,jintur,0,IN,1570595560,56,19.61,76.69,84.78,6.82
1653,newton stewart,75,GB,1570595561,76,54.96,-4.48,53.6,21.92
1654,mpika,3,ZM,1570595561,37,-11.84,31.4,78.46,9.28
1655,antalaha,30,MG,1570595561,76,-14.9,50.28,77.13,13.74
1656,barranca,14,PE,1570595562,89,-10.75,-77.76,59.38,9.51
1657,surgana,0,IN,1570595562,58,20.56,73.64,85.73,4.34
1658,ahome,0,MX,1570595562,89,25.92,-109.18,82.99,1.01
1659,isla mujeres,75,MX,1570595563,100,21.23,-86.73,77.0,8.44
1660,hearst,0,CA,1570595563,78,49.69,-83.67,48.45,9.86
1661,kostek,100,RU,1570595563,72,43.34,46.85,60.32,7.74
1662,fredericksburg,90,US,1570595443,67,38.3,-77.46,63.0,3.36
1663,kingsport,90,US,1570595393,100,36.55,-82.56,59.0,3.11
1664,douglas,75,US,1570595564,52,58.28,-134.39,41.0,8.05
1665,lodja,96,CD,1570595564,86,-3.52,23.6,74.38,2.98
1666,iralaya,12,HN,1570595564,97,15.0,-83.23,75.98,1.57
1667,owando,55,CG,1570595565,93,-0.49,15.91,72.77,2.54
1668,morro bay,90,US,1570595565,93,35.37,-120.85,63.0,0.56
1669,fort payne,1,US,1570595565,100,34.44,-85.72,68.0,7.03
1670,agadir,75,MA,1570595566,88,30.42,-9.58,62.6,3.36
1671,kananga,100,CD,1570595566,91,-5.9,22.41,72.83,2.19
1672,rosiori,5,RO,1570595566,86,44.8,27.38,53.01,8.05
1673,pucallpa,20,PE,1570595566,94,-8.38,-74.54,73.4,2.24
1674,maraa,38,BR,1570595567,84,-1.83,-65.37,76.05,1.34
1675,lazarev,100,RU,1570595567,83,52.23,141.51,47.27,35.66
1676,rovaniemi,75,FI,1570595567,96,66.5,25.72,32.0,9.17
1677,ardesen,90,TR,1570595568,93,41.19,40.99,66.2,18.34
1678,kabo,100,CF,1570595568,98,7.69,18.62,70.36,3.65
1679,tarauaca,0,BR,1570595568,77,-8.16,-70.77,72.09,1.99
1680,cobija,1,BR,1570595569,71,-11.02,-68.77,72.67,1.25
1681,solnechnyy,3,RU,1570595569,42,50.72,136.64,53.82,2.55
1682,marsa matruh,0,EG,1570595569,83,31.35,27.25,73.4,6.93
1683,torbat-e jam,6,IR,1570595570,22,35.24,60.63,73.1,2.04
1684,litovko,0,RU,1570595570,48,49.24,135.18,53.53,11.76
1685,vilcun,0,CL,1570595570,100,-38.65,-72.23,42.8,3.36
1686,asosa,29,ET,1570595571,78,10.07,34.53,73.72,2.98
1687,kjopsvik,0,NO,1570595571,64,68.1,16.37,37.0,18.34
1688,dire,94,ET,1570595571,75,9.18,38.92,59.99,5.75
1689,melita,97,CA,1570595572,78,49.27,-100.98,46.12,16.15
1690,vezirkopru,75,TR,1570595572,71,41.14,35.45,55.4,8.05
1691,rock sound,100,BS,1570595572,83,24.9,-76.2,82.02,10.99
1692,khasan,0,RU,1570595572,41,42.43,130.64,62.65,11.46
1693,mishkino,90,RU,1570595573,100,56.22,46.62,35.6,2.24
1694,vozrozhdeniye,90,RU,1570595573,100,60.86,28.96,35.01,1.25
1695,bulawayo,0,ZW,1570595573,26,-20.16,28.59,81.32,11.21
1696,maputo,75,MZ,1570595574,78,-25.97,32.57,71.6,5.82
1697,mandera,37,ET,1570595574,62,3.94,41.86,83.62,13.44
1698,ibotirama,2,BR,1570595574,59,-12.18,-43.22,74.21,4.0
1699,nang rong,75,TH,1570595575,83,14.64,102.79,84.2,8.05
1700,magdagachi,100,RU,1570595528,97,53.45,125.8,32.74,9.42
1701,bazarnyye mataki,100,RU,1570595575,93,54.9,49.93,40.68,5.17
1702,namalenga,37,TZ,1570595575,54,-10.95,39.1,83.5,7.49
1703,mandal,99,MN,1570595576,54,48.82,106.5,38.34,10.02
1704,hirna,39,ET,1570595576,75,9.22,41.1,64.99,2.53
1705,clovis,1,US,1570595576,35,36.83,-119.7,73.4,5.82
1706,ust-barguzin,52,RU,1570595577,46,53.41,109.03,36.81,11.72
1707,guaruja,90,BR,1570595577,88,-23.99,-46.26,62.6,8.05
1708,zaysan,9,KZ,1570595577,18,47.47,84.87,70.99,9.29
1709,suoyarvi,96,RU,1570595577,93,62.08,32.35,32.25,3.88
1710,charlottesville,90,US,1570595578,100,38.03,-78.48,60.8,8.05
1711,evanston,1,US,1570595578,76,42.04,-87.69,57.2,3.36
1712,trabzon,75,TR,1570595578,77,41.01,39.72,64.4,16.11
1713,muisne,100,EC,1570595578,88,0.61,-80.02,74.25,9.1
1714,zilair,100,RU,1570595579,64,52.23,57.44,45.49,7.52
1715,urucara,89,BR,1570595579,92,-2.54,-57.76,74.03,0.72
1716,southbridge,1,US,1570595579,87,42.08,-72.03,54.0,9.17
1717,dalaba,98,GN,1570595580,98,10.69,-12.25,68.96,1.95
1718,belyy,100,RU,1570595580,95,55.83,32.94,37.76,8.97
1719,havre,90,US,1570595571,92,48.55,-109.68,28.4,12.75
1720,dwarka,0,IN,1570595580,54,28.58,77.04,84.99,4.7
1721,stromness,20,CA,1570595581,76,42.87,-79.55,52.0,6.93
1722,high prairie,76,CA,1570595581,63,55.43,-116.48,23.92,5.96
1723,ryotsu,0,JP,1570595581,42,38.08,138.43,69.8,6.93
1724,mbekenyera,88,TZ,1570595581,68,-10.0,38.98,76.77,7.25
1725,jining,100,CN,1570595583,72,35.41,116.58,64.8,5.35
1726,chimore,0,BO,1570595583,70,-16.98,-65.13,69.17,4.09
1727,akhmim,0,EG,1570595584,31,26.56,31.74,75.2,11.41
1728,ploufragan,100,FR,1570595584,81,48.49,-2.79,53.6,16.11
1729,mvuma,0,ZW,1570595584,31,-19.28,30.53,78.15,16.66
1730,huanren,57,CN,1570595585,47,41.26,125.37,58.8,10.67
1731,neryungri,70,RU,1570595585,79,56.66,124.71,21.58,8.62
1732,rushden,96,GB,1570595585,87,52.29,-0.6,50.0,8.05
1733,ankazoabo,16,MG,1570595586,36,-22.29,44.51,80.91,7.84
1734,arrifes,20,PT,1570595586,55,37.77,-25.7,71.01,6.93
1735,abu kamal,54,SY,1570595586,25,34.45,40.92,82.96,11.41
1736,bani,0,YE,1570595587,71,16.02,42.93,86.81,8.81
1737,messina,75,IT,1570595555,64,38.19,15.55,68.0,2.24
1738,gombong,7,ID,1570595587,34,-7.19,109.31,97.58,8.08
1739,pandhurna,0,IN,1570595588,62,21.6,78.53,82.69,6.45
1740,ossipee,90,US,1570595588,82,36.17,-79.51,62.6,3.36
1741,chipinge,0,ZW,1570595588,29,-20.19,32.62,85.53,3.95
1742,corrales,100,CO,1570595588,93,5.83,-72.84,45.29,2.91
1743,edson,90,CA,1570595589,68,53.59,-116.44,24.8,9.17
1744,guanica,98,PR,1570595589,75,17.97,-66.91,82.0,8.01
1745,igarka,47,RU,1570595589,69,67.47,86.57,31.1,7.23
1746,shizunai,63,JP,1570595589,67,42.33,142.37,59.27,22.88
1747,wiang sa,20,TH,1570595590,66,8.64,99.37,89.6,3.36
1748,chinsali,21,ZM,1570595590,34,-10.55,32.07,79.3,3.12
1749,silifke,29,TR,1570595590,45,36.38,33.93,72.14,4.34
1750,kisangani,100,CD,1570595591,95,0.52,25.21,70.16,5.26
1751,do gonbadan,0,IR,1570595591,69,30.36,50.8,78.8,2.46
1752,maryborough,53,AU,1570595591,56,-25.54,152.7,72.32,11.12
1753,metro,37,ID,1570595592,39,-5.11,105.31,94.61,7.56
1754,luan,40,CH,1570595592,76,46.36,6.98,62.6,2.24
1755,jumla,0,NP,1570595594,38,29.28,82.18,62.83,6.18
1756,eganville,1,CA,1570595594,93,45.54,-77.1,37.4,2.28
1757,hantsport,75,CA,1570595595,100,45.06,-64.18,52.0,2.24
1758,xicotencatl,58,MX,1570595596,87,23.02,-98.88,78.01,3.0
1759,lipari,75,IT,1570595596,64,38.47,14.95,71.01,2.24
1760,iskateley,51,RU,1570595596,76,67.68,53.15,34.18,21.73
1761,bac giang,75,VN,1570595596,78,21.27,106.2,80.6,5.82
